"townid","town","county","x","full_address","full_address_Ire","lon","lat"
2534,"Abbey","Galway","","Abbey,Galway","Abbey,Galway,Ireland",-8.3901259,53.103368
1476,"Abbeydorney","Kerry","","Abbeydorney,Kerry","Abbeydorney,Kerry,Ireland",-9.6879095,52.346618
501,"Abbeyfeale","Kerry","","Abbeyfeale,Kerry","Abbeyfeale,Kerry,Ireland",-9.2970823,52.3861811
623,"Abbeyfeale","Limerick","","Abbeyfeale,Limerick","Abbeyfeale,Limerick,Ireland",-9.2970823,52.3861811
1398,"Abbeyfeale PO","Kerry","","Abbeyfeale PO,Kerry","Abbeyfeale PO,Kerry,Ireland",-9.2970823,52.3861811
2187,"Abbeyknockmoy","Galway","","Abbeyknockmoy,Galway","Abbeyknockmoy,Galway,Ireland",-8.74804,53.43649
667,"Abbeylara","Longford","","Abbeylara,Longford","Abbeylara,Longford,Ireland",-7.4488661,53.7652808
588,"Abbeyleix","Laois","","Abbeyleix,Laois","Abbeyleix,Laois,Ireland",-7.3478923,52.9152801
1159,"Abbeyshrule","Longford","","Abbeyshrule,Longford","Abbeyshrule,Longford,Ireland",-7.6575535,53.5825139
2655,"Abbeyside","","","Abbeyside,","Abbeyside,,Ireland",-7.6168652,52.0931797
326,"Abbotstown","Dublin","","Abbotstown,Dublin","Abbotstown,Dublin,Ireland",-6.3666919,53.3883497
698,"Achill","Mayo","","Achill,Mayo","Achill,Mayo,Ireland",-10.015335,53.9619505
699,"Achill Island","Mayo","","Achill Island,Mayo","Achill Island,Mayo,Ireland",-10.015335,53.9619505
700,"Achill Sound","Mayo","","Achill Sound,Mayo","Achill Sound,Mayo,Ireland",-10.015335,53.9619505
2266,"Achonry","Sligo","","Achonry,Sligo","Achonry,Sligo,Ireland",-8.6639096,54.0804305
801,"Aclare","Sligo","","Aclare,Sligo","Aclare,Sligo,Ireland",-8.8966534,54.0364622
1626,"Adamstown","Wexford","","Adamstown,Wexford","Adamstown,Wexford,Ireland",-6.7185567,52.3935687
624,"Adare","Limerick","","Adare,Limerick","Adare,Limerick,Ireland",-8.7925892,52.5636339
1317,"Adare","Limerick","","Adare,Limerick","Adare,Limerick,Ireland",-8.7925892,52.5636339
1128,"Adrigole","Cork","","Adrigole,Cork","Adrigole,Cork,Ireland",-9.7228146,51.694197
2372,"Aghabog","Monaghan","","Aghabog,Monaghan","Aghabog,Monaghan,Ireland",-7.0958937,54.147239
1482,"Aghabullogue","Cork","","Aghabullogue,Cork","Aghabullogue,Cork,Ireland",-8.8078507,51.9443038
1329,"Aghacashel","Leitrim","","Aghacashel,Leitrim","Aghacashel,Leitrim,Ireland",-7.93631,54.0732323
2166,"Aghada","Cork","","Aghada,Cork","Aghada,Cork,Ireland",-8.2089958,51.836983
1322,"Aghadegnan","","","Aghadegnan,","Aghadegnan,,Ireland",-7.806645,53.7419283
216,"Aghadowey","","","Aghadowey,","Aghadowey,,Ireland",-6.65189,55.02961
2245,"Aghadrumsee","Fermanagh","","Aghadrumsee,Fermanagh","Aghadrumsee,Fermanagh,Ireland",-7.2770833,54.2292749
2529,"Aghalee","Antrim","","Aghalee,Antrim","Aghalee,Antrim,Ireland",-6.2659683,54.5224256
2423,"Aghamore","Mayo","","Aghamore,Mayo","Aghamore,Mayo,Ireland",-8.8244725,53.8276872
1195,"Aghinagh","Cork","","Aghinagh,Cork","Aghinagh,Cork,Ireland",-8.89434,51.89425
2209,"Aghyaran","Tyrone","","Aghyaran,Tyrone","Aghyaran,Tyrone,Ireland",-7.7236784,54.6668294
1463,"Aglish","Waterford","","Aglish,Waterford","Aglish,Waterford,Ireland",-7.8222696,52.0715072
1538,"Ahakista","Cork","","Ahakista,Cork","Ahakista,Cork,Ireland",-9.6321826,51.5999082
1641,"Ahascragh","Galway","","Ahascragh,Galway","Ahascragh,Galway,Ireland",-8.3346318,53.3976127
1162,"Aherla","Cork","","Aherla,Cork","Aherla,Cork,Ireland",-8.7326019,51.8536728
826,"Aherlow","Tipperary","","Aherlow,Tipperary","Aherlow,Tipperary,Ireland",-8.19226,52.4198
1340,"Alacken","Cavan","","Alacken,Cavan","Alacken,Cavan,Ireland",-7.2987167,53.9723816
1,"Aldergrove","","","Aldergrove,","Aldergrove,,Ireland",-6.2431244,54.6446916
1840,"Allenwood","Kildare","","Allenwood,Kildare","Allenwood,Kildare,Ireland",-6.8618406,53.2839545
1507,"Allihies","Cork","","Allihies,Cork","Allihies,Cork,Ireland",-10.0441558,51.6412598
2044,"Altnagelvin","Derry","","Altnagelvin,Derry","Altnagelvin,Derry,Ireland",-7.2873335,54.9799363
2023,"Anglesboro","Limerick","","Anglesboro,Limerick","Anglesboro,Limerick,Ireland",-8.2895418,52.3403057
1526,"Anglesborough","Limerick","","Anglesborough,Limerick","Anglesborough,Limerick,Ireland",-8.2895418,52.3403057
1633,"Annacarty","Tipperary","","Annacarty,Tipperary","Annacarty,Tipperary,Ireland",-8.1103849,52.5644224
625,"Annacotty","Limerick","","Annacotty,Limerick","Annacotty,Limerick,Ireland",-8.5376764,52.6680427
2334,"Annacurra","Wicklow","","Annacurra,Wicklow","Annacurra,Wicklow,Ireland",-6.35305,52.83987
1047,"Annaduff","Leitrim","","Annaduff,Leitrim","Annaduff,Leitrim,Ireland",-7.9894635,53.922596
228,"Annagary","Donegal","","Annagary,Donegal","Annagary,Donegal,Ireland",-8.3136601,55.02044
1944,"Annagassan","Louth","","Annagassan,Louth","Annagassan,Louth,Ireland",-6.3434942,53.882628
1327,"Annaghdown","Galway","","Annaghdown,Galway","Annaghdown,Galway,Ireland",-9.0710338,53.3881317
2175,"Annaglough","Cavan","","Annaglough,Cavan","Annaglough,Cavan,Ireland",-6.95335,53.93861
1768,"Annagry","Donegal","","Annagry,Donegal","Annagry,Donegal,Ireland",-8.3136601,55.02044
294,"Annalong","Down","","Annalong,Down","Annalong,Down,Ireland",-5.90109,54.10771
1261,"Annamoe","Wicklow","","Annamoe,Wicklow","Annamoe,Wicklow,Ireland",-6.2542182,53.0315169
502,"Annascaul","Kerry","","Annascaul,Kerry","Annascaul,Kerry,Ireland",-10.0567611,52.1510786
2325,"Annestown","Waterford","","Annestown,Waterford","Annestown,Waterford,Ireland",-7.2719426,52.1405863
2073,"Annyalla","Monaghan","","Annyalla,Monaghan","Annyalla,Monaghan,Ireland",-6.78888,54.16064
2,"Antrim Town","Antrim","","Antrim Town,Antrim","Antrim Town,Antrim,Ireland",-6.2072498,54.7195338
2265,"Araglen","Cork","","Araglen,Cork","Araglen,Cork,Ireland",-8.1066188,52.2071513
2322,"Araglen","Waterford","","Araglen,Waterford","Araglen,Waterford,Ireland",-8.1066188,52.2071513
1430,"Araglin","Cork","","Araglin,Cork","Araglin,Cork,Ireland",-8.1066188,52.2071513
1539,"Aran","","","Aran,","Aran,,Ireland",-9.656332,53.0971747
440,"Aran Islands","Galway","","Aran Islands,Galway","Aran Islands,Galway,Ireland",-9.656332,53.0971747
1439,"Arbour Hill","Dublin","","Arbour Hill,Dublin","Arbour Hill,Dublin,Ireland",-6.2888873,53.3516251
2513,"Ard Na Gréine","Dublin","","Ard Na Gréine,Dublin","Ard Na Gréine,Dublin,Ireland",-6.2603097,53.3498053
626,"Ardagh","Limerick","","Ardagh,Limerick","Ardagh,Limerick,Ireland",-9.0637201,52.4941233
1283,"Ardagh","Limerick","","Ardagh,Limerick","Ardagh,Limerick,Ireland",-9.0637201,52.4941233
1284,"Ardagh","Longford","","Ardagh,Longford","Ardagh,Longford,Ireland",-7.69409,53.66715
2512,"Ardagh","","","Ardagh,","Ardagh,,Ireland",-7.69409,53.66715
1655,"Ardaghowen","","","Ardaghowen,","Ardaghowen,,Ireland",-8.460293,54.2727674
229,"Ardara","Donegal","","Ardara,Donegal","Ardara,Donegal,Ireland",-8.4092864,54.7671456
1008,"Ardattin","Carlow","","Ardattin,Carlow","Ardattin,Carlow,Ireland",-6.706149,52.7550249
2043,"Ardcath","Meath","","Ardcath,Meath","Ardcath,Meath,Ireland",-6.3916485,53.6091281
1462,"Ardcavan","Wexford","","Ardcavan,Wexford","Ardcavan,Wexford,Ireland",-6.4451472,52.3577533
1184,"Ardclough","Kildare","","Ardclough,Kildare","Ardclough,Kildare,Ireland",-6.5764394,53.290449
2454,"Ardcroney","Tipperary","","Ardcroney,Tipperary","Ardcroney,Tipperary,Ireland",-8.1561036,52.935516
681,"Ardee","Louth","","Ardee,Louth","Ardee,Louth,Ireland",-6.5400009,53.8576227
1914,"Ardee","","","Ardee,","Ardee,,Ireland",-6.5400009,53.8576227
503,"Ardfert","Kerry","","Ardfert,Kerry","Ardfert,Kerry,Ireland",-9.7693245,52.3273888
1546,"Ardfield","Cork","","Ardfield,Cork","Ardfield,Cork,Ireland",-8.9102498,51.566973
827,"Ardfinnan","Tipperary","","Ardfinnan,Tipperary","Ardfinnan,Tipperary,Ireland",-7.8842292,52.3092483
295,"Ardglass","Down","","Ardglass,Down","Ardglass,Down,Ireland",-5.6108327,54.2633033
1224,"Ardgroom","Cork","","Ardgroom,Cork","Ardgroom,Cork,Ireland",-9.89707,51.73373
2637,"Ardlougher","Cavan","","Ardlougher,Cavan","Ardlougher,Cavan,Ireland",-7.5759622,54.0632742
870,"Ardmore","Waterford","","Ardmore,Waterford","Ardmore,Waterford,Ireland",-7.725329,51.9510741
2601,"Ardmore","Galway","","Ardmore,Galway","Ardmore,Galway,Ireland",-9.7693646,53.3068664
1001,"Ardnacrusha","Clare","","Ardnacrusha,Clare","Ardnacrusha,Clare,Ireland",-8.6139472,52.7090984
2653,"Ardnageehy","Cork","","Ardnageehy,Cork","Ardnageehy,Cork,Ireland",-9.4221501,51.6804435
1262,"Ardpatrick","Limerick","","Ardpatrick,Limerick","Ardpatrick,Limerick,Ireland",-8.5253604,52.3414524
441,"Ardrahan","Galway","","Ardrahan,Galway","Ardrahan,Galway,Ireland",-8.8058651,53.1564343
1860,"Ardsallagh Beg","","","Ardsallagh Beg,","Ardsallagh Beg,,Ireland",-8.1824525,53.622291
1350,"Ardsallagh Woods","","","Ardsallagh Woods,","Ardsallagh Woods,,Ireland",-8.1785997,53.6189356
1680,"Arigna","Roscommon","","Arigna,Roscommon","Arigna,Roscommon,Ireland",-8.1125249,54.0763414
951,"Arklow","","","Arklow,","Arklow,,Ireland",-6.1599293,52.7976935
1039,"Arklow","Wicklow","","Arklow,Wicklow","Arklow,Wicklow,Ireland",-6.1599293,52.7976935
1577,"Armagh City","Armagh","","Armagh City,Armagh","Armagh City,Armagh,Ireland",-6.652792,54.3502798
26,"Armagh Town","Armagh","","Armagh Town,Armagh","Armagh Town,Armagh,Ireland",-6.652792,54.3502798
2618,"Arney","Fermanagh","","Arney,Fermanagh","Arney,Fermanagh,Ireland",-7.67597,54.29115
230,"Arranmore Island","Donegal","","Arranmore Island,Donegal","Arranmore Island,Donegal,Ireland",-8.5350585,54.9874345
327,"Artane","Dublin","","Artane,Dublin","Artane,Dublin,Ireland",-6.2095194,53.3831976
916,"Arthurstown","Wexford","","Arthurstown,Wexford","Arthurstown,Wexford,Ireland",-6.9513715,52.2420168
48,"Arva","Cavan","","Arva,Cavan","Arva,Cavan,Ireland",-7.5799134,53.9214383
49,"Arvagh","","","Arvagh,","Arvagh,,Ireland",-7.5799134,53.9214383
1178,"Asdee","Kerry","","Asdee,Kerry","Asdee,Kerry,Ireland",-9.5599987,52.5518462
730,"Ashbourne","Meath","","Ashbourne,Meath","Ashbourne,Meath,Ireland",-6.3973818,53.5111621
952,"Ashford","","","Ashford,","Ashford,,Ireland",-6.108289,53.0107896
1103,"Ashford","Wicklow","","Ashford,Wicklow","Ashford,Wicklow,Ireland",-6.108289,53.0107896
2415,"Ashford","Limerick","","Ashford,Limerick","Ashford,Limerick,Ireland",-9.0592141,52.3597394
1303,"Ashtown","Dublin","","Ashtown,Dublin","Ashtown,Dublin,Ireland",-6.3181386,53.3678093
627,"Askeaton","Limerick","","Askeaton,Limerick","Askeaton,Limerick,Ireland",-8.9717511,52.6006587
731,"Athboy","Meath","","Athboy,Meath","Athboy,Meath,Ireland",-6.915637,53.6236329
628,"Athea","Limerick","","Athea,Limerick","Athea,Limerick,Ireland",-9.289613,52.4609895
442,"Athenry","Galway","","Athenry,Galway","Athenry,Galway,Ireland",-8.7453768,53.3008131
1673,"Athgarvan","Kildare","","Athgarvan,Kildare","Athgarvan,Kildare,Ireland",-6.7777003,53.1528908
2143,"Athlacca","Limerick","","Athlacca,Limerick","Athlacca,Limerick,Ireland",-8.6500825,52.4580084
784,"Athleague","Roscommon","","Athleague,Roscommon","Athleague,Roscommon,Ireland",-8.2567472,53.5676272
901,"Athlone","Westmeath","","Athlone,Westmeath","Athlone,Westmeath,Ireland",-7.9406898,53.4239331
995,"Athlone","Roscommon","","Athlone,Roscommon","Athlone,Roscommon,Ireland",-7.9406898,53.4239331
1084,"Athlone","Offaly","","Athlone,Offaly","Athlone,Offaly,Ireland",-7.9406898,53.4239331
537,"Athy","Kildare","","Athy,Kildare","Athy,Kildare,Ireland",-6.9857281,52.9918336
2224,"Attanagh","Kilkenny","","Attanagh,Kilkenny","Attanagh,Kilkenny,Ireland",-7.3532315,52.8332953
2370,"Attanagh","Laois","","Attanagh,Laois","Attanagh,Laois,Ireland",-7.3532315,52.8332953
2270,"Attymass","Mayo","","Attymass,Mayo","Attymass,Mayo,Ireland",-9.0832485,54.0513142
1495,"Aughadown","Cork","","Aughadown,Cork","Aughadown,Cork,Ireland",-9.37507,51.54778
2248,"Aughamore","Leitrim","","Aughamore,Leitrim","Aughamore,Leitrim,Ireland",-7.9539796,53.8989952
2252,"Aughamore Far","Sligo","","Aughamore Far,Sligo","Aughamore Far,Sligo,Ireland",-8.43935,54.23502
1254,"Aughamore Near","Sligo","","Aughamore Near,Sligo","Aughamore Near,Sligo,Ireland",-8.45115,54.2395
1473,"Aughavas","Leitrim","","Aughavas,Leitrim","Aughavas,Leitrim,Ireland",-7.7158,53.95603
861,"Augher","Tyrone","","Augher,Tyrone","Augher,Tyrone,Ireland",-7.1323199,54.42792
668,"Aughnacliffe","Longford","","Aughnacliffe,Longford","Aughnacliffe,Longford,Ireland",-7.6046275,53.8477886
862,"Aughnacloy","Tyrone","","Aughnacloy,Tyrone","Aughnacloy,Tyrone,Ireland",-6.9746522,54.4133642
1741,"Aughnasheelin","Leitrim","","Aughnasheelin,Leitrim","Aughnasheelin,Leitrim,Ireland",-7.86394,54.06779
2396,"Aughoose","Mayo","","Aughoose,Mayo","Aughoose,Mayo,Ireland",-9.77388,54.25445
953,"Aughrim","Galway","","Aughrim,Galway","Aughrim,Galway,Ireland",-8.3165184,53.3023758
1457,"Aughrim","Wicklow","","Aughrim,Wicklow","Aughrim,Wicklow,Ireland",-6.3259331,52.8559337
1464,"Aughrim","Galway","","Aughrim,Galway","Aughrim,Galway,Ireland",-8.3165184,53.3023758
954,"Avoca","","","Avoca,","Avoca,,Ireland",-6.2140891,52.8586664
1387,"Avoca","Wicklow","","Avoca,Wicklow","Avoca,Wicklow,Ireland",-6.2140891,52.8586664
1654,"Avondale","Waterford","","Avondale,Waterford","Avondale,Waterford,Ireland",-7.1172202,52.2374198
1059,"Ayrfield","Dublin","","Ayrfield,Dublin","Ayrfield,Dublin,Ireland",-6.1827752,53.3942333
38,"Bagenalstown","Carlow","","Bagenalstown,Carlow","Bagenalstown,Carlow,Ireland",-6.9558676,52.7031106
50,"Bailieborough","Cavan","","Bailieborough,Cavan","Bailieborough,Cavan,Ireland",-6.9692942,53.9156096
1937,"Balally","Dublin","","Balally,Dublin","Balally,Dublin,Ireland",-6.2357436,53.2751192
329,"Balbriggan","Dublin","","Balbriggan,Dublin","Balbriggan,Dublin,Ireland",-6.1820798,53.6083194
330,"Baldoyle","Dublin","","Baldoyle,Dublin","Baldoyle,Dublin,Ireland",-6.1272516,53.3986712
1360,"Balgriffin","Dublin","","Balgriffin,Dublin","Balgriffin,Dublin,Ireland",-6.1765627,53.4096881
701,"Balla","Mayo","","Balla,Mayo","Balla,Mayo,Ireland",-9.1305015,53.8043767
589,"Ballacolla","Laois","","Ballacolla,Laois","Ballacolla,Laois,Ireland",-7.4465244,52.8826772
1220,"Ballagh","Limerick","","Ballagh,Limerick","Ballagh,Limerick,Ireland",-9.078274,52.372688
1686,"Ballagh","Limerick","","Ballagh,Limerick","Ballagh,Limerick,Ireland",-9.078274,52.372688
2598,"Ballagh","Tipperary","","Ballagh,Tipperary","Ballagh,Tipperary,Ireland",-8.1104927,52.4424696
785,"Ballaghaderreen","Roscommon","","Ballaghaderreen,Roscommon","Ballaghaderreen,Roscommon,Ireland",-8.5792106,53.9016968
1019,"Ballaghaderreen","Mayo","","Ballaghaderreen,Mayo","Ballaghaderreen,Mayo,Ireland",-8.5792106,53.9016968
1647,"Ballaghmoon","","","Ballaghmoon,","Ballaghmoon,,Ireland",-6.8901826,52.8778092
1770,"Ballaghmore","","","Ballaghmore,","Ballaghmore,,Ireland",-7.68983,52.96379
590,"Ballickmoyler","Laois","","Ballickmoyler,Laois","Ballickmoyler,Laois,Ireland",-7.011677,52.8786492
1017,"Ballickmoyler","Carlow","","Ballickmoyler,Carlow","Ballickmoyler,Carlow,Ireland",-7.011677,52.8786492
702,"Ballina","Mayo","","Ballina,Mayo","Ballina,Mayo,Ireland",-9.1550693,54.1149482
1164,"Ballina","Tipperary","","Ballina,Tipperary","Ballina,Tipperary,Ireland",-8.4309179,52.8070154
1948,"Ballina","Sligo","","Ballina,Sligo","Ballina,Sligo,Ireland",-9.1550693,54.1149482
1622,"Ballinabrackey","Meath","","Ballinabrackey,Meath","Ballinabrackey,Meath,Ireland",-7.1331525,53.4162082
1506,"Ballinabranna","Carlow","","Ballinabranna,Carlow","Ballinabranna,Carlow,Ireland",-6.9863829,52.7867232
2624,"Ballinacarrig","Carlow","","Ballinacarrig,Carlow","Ballinacarrig,Carlow,Ireland",-6.9072517,52.8180207
2189,"Ballinacarrow","Sligo","","Ballinacarrow,Sligo","Ballinacarrow,Sligo,Ireland",-8.560462,54.1340968
629,"Ballinacurra","Limerick","","Ballinacurra,Limerick","Ballinacurra,Limerick,Ireland",-8.6382691,52.6450097
1124,"Ballinacurra","Cork","","Ballinacurra,Cork","Ballinacurra,Cork,Ireland",-8.1667339,51.8995657
2249,"Ballinacurra Weston","Limerick","","Ballinacurra Weston,Limerick","Ballinacurra Weston,Limerick,Ireland",-8.6290864,52.6490399
2083,"Ballinadee","Cork","","Ballinadee,Cork","Ballinadee,Cork,Ireland",-8.6262475,51.7132009
1408,"Ballinafad","Galway","","Ballinafad,Galway","Ballinafad,Galway,Ireland",-9.8206284,53.456911
1736,"Ballinafad","Sligo","","Ballinafad,Sligo","Ballinafad,Sligo,Ireland",-8.3333304,54.0275633
786,"Ballinagare","Roscommon","","Ballinagare,Roscommon","Ballinagare,Roscommon,Ireland",-8.3793506,53.8375287
51,"Ballinagh","Cavan","","Ballinagh,Cavan","Ballinagh,Cavan,Ireland",-7.41044,53.9302
602,"Ballinaglera","Leitrim","","Ballinaglera,Leitrim","Ballinaglera,Leitrim,Ireland",-8.0097,54.34
1995,"Ballinagore","Westmeath","","Ballinagore,Westmeath","Ballinagore,Westmeath,Ireland",-7.464873,53.4064475
1335,"Ballinagree","Cork","","Ballinagree,Cork","Ballinagree,Cork,Ireland",-8.9249,51.97699
2345,"Ballinaheglish","Roscommon","","Ballinaheglish,Roscommon","Ballinaheglish,Roscommon,Ireland",-8.3128637,53.6875273
2642,"Ballinahina","Cork","","Ballinahina,Cork","Ballinahina,Cork,Ireland",-8.41263,52.0064
1825,"Ballinahinch","Tipperary","","Ballinahinch,Tipperary","Ballinahinch,Tipperary,Ireland",-8.3815259,52.7681766
1151,"Ballinahown","Offaly","","Ballinahown,Offaly","Ballinahown,Offaly,Ireland",-7.8488925,53.3506786
2421,"Ballinahown","Galway","","Ballinahown,Galway","Ballinahown,Galway,Ireland",-9.49897,53.23979
591,"Ballinakill","Laois","","Ballinakill,Laois","Ballinakill,Laois,Ireland",-7.3085753,52.8750077
871,"Ballinakill","Waterford","","Ballinakill,Waterford","Ballinakill,Waterford,Ireland",-7.0669791,52.2459743
1990,"Ballinalack","Westmeath","","Ballinalack,Westmeath","Ballinalack,Westmeath,Ireland",-7.473041,53.6305581
669,"Ballinalee","Longford","","Ballinalee,Longford","Ballinalee,Longford,Ireland",-7.6550915,53.7750724
2403,"Ballinamallard","Fermanagh","","Ballinamallard,Fermanagh","Ballinamallard,Fermanagh,Ireland",-7.59466,54.42071
2591,"Ballinameen","Roscommon","","Ballinameen,Roscommon","Ballinameen,Roscommon,Ireland",-8.301216,53.8972258
603,"Ballinamore","Leitrim","","Ballinamore,Leitrim","Ballinamore,Leitrim,Ireland",-7.8032043,54.0522181
1275,"Ballinamore Bridge","Galway","","Ballinamore Bridge,Galway","Ballinamore Bridge,Galway,Ireland",-8.3652828,53.4835534
1751,"Ballinamuck","Longford","","Ballinamuck,Longford","Ballinamuck,Longford,Ireland",-7.7172342,53.8648897
1492,"Ballinamult","Waterford","","Ballinamult,Waterford","Ballinamult,Waterford,Ireland",-7.7338323,52.2114993
1414,"Ballinaneashagh","Waterford","","Ballinaneashagh,Waterford","Ballinaneashagh,Waterford,Ireland",-7.1572051,52.2409344
1606,"Ballinard","","","Ballinard,","Ballinard,,Ireland",-8.4647477,52.52033
1359,"Ballinascarthy","Cork","","Ballinascarthy,Cork","Ballinascarthy,Cork,Ireland",-8.8577495,51.6724453
443,"Ballinasloe","Galway","","Ballinasloe,Galway","Ballinasloe,Galway,Ireland",-8.2269467,53.3287621
1315,"Ballinasloe","Roscommon","","Ballinasloe,Roscommon","Ballinasloe,Roscommon,Ireland",-8.2269467,53.3287621
1064,"Ballincar","Sligo","","Ballincar,Sligo","Ballincar,Sligo,Ireland",-8.5022036,54.2970322
112,"Ballincollig","Cork","","Ballincollig,Cork","Ballincollig,Cork,Ireland",-8.5949041,51.888026
1799,"Ballincurrig","Cork","","Ballincurrig,Cork","Ballincurrig,Cork,Ireland",-8.2276486,51.9887691
2304,"Ballindaggin","Wexford","","Ballindaggin,Wexford","Ballindaggin,Wexford,Ireland",-6.680261,52.568545
2381,"Ballindangan","Cork","","Ballindangan,Cork","Ballindangan,Cork,Ireland",-8.3401634,52.2373907
1700,"Ballinderreen","Galway","","Ballinderreen,Galway","Ballinderreen,Galway,Ireland",-8.9096455,53.1856721
703,"Ballindine","Mayo","","Ballindine,Mayo","Ballindine,Mayo,Ireland",-8.9567295,53.6692569
2468,"Ballindooley","Galway","","Ballindooley,Galway","Ballindooley,Galway,Ireland",-9.02682,53.30976
2418,"Ballindrait","Donegal","","Ballindrait,Donegal","Ballindrait,Donegal,Ireland",-7.5265306,54.8451594
113,"Ballineen","Cork","","Ballineen,Cork","Ballineen,Cork,Ireland",-8.948611,51.735556
1591,"Ballinfull","Sligo","","Ballinfull,Sligo","Ballinfull,Sligo,Ireland",-8.5811683,54.3617644
630,"Ballingarry","Limerick","","Ballingarry,Limerick","Ballingarry,Limerick,Ireland",-8.8623864,52.4734657
2257,"Ballingarry (NR)","Tipperary","","Ballingarry (NR),Tipperary","Ballingarry (NR),Tipperary,Ireland",-7.547113,52.5876621
2256,"Ballingarry (SR)","Tipperary","","Ballingarry (SR),Tipperary","Ballingarry (SR),Tipperary,Ireland",-7.547113,52.5876621
1104,"Ballingeary","Cork","","Ballingeary,Cork","Ballingeary,Cork,Ireland",-9.2326402,51.8507469
114,"Ballinhassig","Cork","","Ballinhassig,Cork","Ballinhassig,Cork,Ireland",-8.5377211,51.8123488
115,"Ballinlough","Cork","","Ballinlough,Cork","Ballinlough,Cork,Ireland",-8.4484808,51.8877205
787,"Ballinlough","Roscommon","","Ballinlough,Roscommon","Ballinlough,Roscommon,Ireland",-8.6335579,53.7418858
1248,"Ballinode","Sligo","","Ballinode,Sligo","Ballinode,Sligo,Ireland",-8.4591206,54.2792354
2661,"Ballinode","Monaghan","","Ballinode,Monaghan","Ballinode,Monaghan,Ireland",-7.0364418,54.266922
2433,"Ballinora","Cork","","Ballinora,Cork","Ballinora,Cork,Ireland",-8.57256,51.86127
1797,"Ballinrea","","","Ballinrea,","Ballinrea,,Ireland",-8.46959,52.0293
704,"Ballinrobe","Mayo","","Ballinrobe,Mayo","Ballinrobe,Mayo,Ireland",-9.2211143,53.6237338
1399,"Ballinruan","Clare","","Ballinruan,Clare","Ballinruan,Clare,Ireland",-8.8289701,52.9539989
504,"Ballinskelligs","Kerry","","Ballinskelligs,Kerry","Ballinskelligs,Kerry,Ireland",-10.2730136,51.8244027
116,"Ballinspittle","Cork","","Ballinspittle,Cork","Ballinspittle,Cork,Ireland",-8.5965941,51.6663408
331,"Ballinteer","Dublin","","Ballinteer,Dublin","Ballinteer,Dublin,Ireland",-6.2535293,53.2746173
117,"Ballintemple","Cork","","Ballintemple,Cork","Ballintemple,Cork,Ireland",-8.4347619,51.894359
802,"Ballintogher","Sligo","","Ballintogher,Sligo","Ballintogher,Sligo,Ireland",-8.3649676,54.2006449
2448,"Ballintotas","Cork","","Ballintotas,Cork","Ballintotas,Cork,Ireland",-8.0989333,51.9063105
231,"Ballintra","Donegal","","Ballintra,Donegal","Ballintra,Donegal,Ireland",-8.1243234,54.5788499
1833,"Ballintrillick","Sligo","","Ballintrillick,Sligo","Ballintrillick,Sligo,Ireland",-8.4073735,54.4087965
1788,"Ballintubber","Roscommon","","Ballintubber,Roscommon","Ballintubber,Roscommon,Ireland",-8.4100998,53.7180878
803,"Ballisodare","Sligo","","Ballisodare,Sligo","Ballisodare,Sligo,Ireland",-8.5090366,54.2121162
2006,"Ballitore","Kildare","","Ballitore,Kildare","Ballitore,Kildare,Ireland",-6.8156295,53.009742
732,"Ballivor","Meath","","Ballivor,Meath","Ballivor,Meath,Ireland",-6.9680717,53.5329521
39,"Ballon","Carlow","","Ballon,Carlow","Ballon,Carlow,Ireland",-6.7697839,52.7391042
332,"Ballsbridge","Dublin","","Ballsbridge,Dublin","Ballsbridge,Dublin,Ireland",-6.2305235,53.3288697
2449,"Ballyadams","Laois","","Ballyadams,Laois","Ballyadams,Laois,Ireland",-7.0741119,52.9668105
1582,"Ballyagran","Limerick","","Ballyagran,Limerick","Ballyagran,Limerick,Ireland",-8.7832954,52.4026441
444,"Ballybane","Galway","","Ballybane,Galway","Ballybane,Galway,Ireland",-9.0088531,53.2789277
755,"Ballybay","Monaghan","","Ballybay,Monaghan","Ballybay,Monaghan,Ireland",-6.9027864,54.1294617
1434,"Ballybeg","Waterford","","Ballybeg,Waterford","Ballybeg,Waterford,Ireland",-7.1422074,52.242052
1301,"Ballyboden","Dublin","","Ballyboden,Dublin","Ballyboden,Dublin,Ireland",-6.2926051,53.2823185
232,"Ballybofey","Donegal","","Ballybofey,Donegal","Ballybofey,Donegal,Ireland",-7.7875481,54.7968244
333,"Ballybough","Dublin","","Ballybough,Dublin","Ballybough,Dublin,Ireland",-6.2505635,53.3674614
1227,"Ballyboughal","Dublin","","Ballyboughal,Dublin","Ballyboughal,Dublin,Ireland",-6.2675954,53.520206
538,"Ballybrack","","","Ballybrack,","Ballybrack,,Ireland",-6.1193627,53.2487886
1120,"Ballybrack","Dublin","","Ballybrack,Dublin","Ballybrack,Dublin,Ireland",-6.1193627,53.2487886
872,"Ballybricken","Waterford","","Ballybricken,Waterford","Ballybricken,Waterford,Ireland",-7.1170621,52.2602102
2530,"Ballybricken","","","Ballybricken,","Ballybricken,,Ireland",-8.5147897,52.5677802
445,"Ballybrit","Galway","","Ballybrit,Galway","Ballybrit,Galway,Ireland",-8.9972899,53.2904256
592,"Ballybrittas","Laois","","Ballybrittas,Laois","Ballybrittas,Laois,Ireland",-7.1374187,53.109028
1730,"Ballybrophy","Laois","","Ballybrophy,Laois","Ballybrophy,Laois,Ireland",-7.6190334,52.905614
505,"Ballybunion","Kerry","","Ballybunion,Kerry","Ballybunion,Kerry,Ireland",-9.67097,52.51108
1380,"Ballycallan","Kilkenny","","Ballycallan,Kilkenny","Ballycallan,Kilkenny,Ireland",-7.3661798,52.6204221
3,"Ballycastle","Antrim","","Ballycastle,Antrim","Ballycastle,Antrim,Ireland",-6.2532947,55.2052888
705,"Ballycastle","Mayo","","Ballycastle,Mayo","Ballycastle,Mayo,Ireland",-9.3724643,54.2796698
4,"Ballyclare","Antrim","","Ballyclare,Antrim","Ballyclare,Antrim,Ireland",-6.0015221,54.7529144
1550,"Ballyclough","Limerick","","Ballyclough,Limerick","Ballyclough,Limerick,Ireland",-8.6241929,52.622007
1634,"Ballyclough","Cork","","Ballyclough,Cork","Ballyclough,Cork,Ireland",-8.742242,52.1673919
917,"Ballycogley","Wexford","","Ballycogley,Wexford","Ballycogley,Wexford,Ireland",-6.48942,52.24392
446,"Ballyconneely","Galway","","Ballyconneely,Galway","Ballyconneely,Galway,Ireland",-10.0701066,53.4292767
52,"Ballyconnell","Cavan","","Ballyconnell,Cavan","Ballyconnell,Cavan,Ireland",-7.5839543,54.1162175
2414,"Ballyconnell","","","Ballyconnell,","Ballyconnell,,Ireland",-7.5839543,54.1162175
2613,"Ballycoog","Wicklow","","Ballycoog,Wicklow","Ballycoog,Wicklow,Ireland",-6.2714896,52.8301698
118,"Ballycotton","Cork","","Ballycotton,Cork","Ballycotton,Cork,Ireland",-8.0097621,51.8299148
1873,"Ballycroy","Mayo","","Ballycroy,Mayo","Ballycroy,Mayo,Ireland",-9.8260445,54.0238928
1983,"Ballycullane","Wexford","","Ballycullane,Wexford","Ballycullane,Wexford,Ireland",-6.8397818,52.2803179
2507,"Ballycullen","Dublin","","Ballycullen,Dublin","Ballycullen,Dublin,Ireland",-6.3269748,53.2730289
1613,"Ballycumber","Offaly","","Ballycumber,Offaly","Ballycumber,Offaly,Ireland",-7.6861137,53.3264159
2550,"Ballydangan","Roscommon","","Ballydangan,Roscommon","Ballydangan,Roscommon,Ireland",-8.095581,53.3443574
1006,"Ballydavid","Kerry","","Ballydavid,Kerry","Ballydavid,Kerry,Ireland",-10.3669691,52.2233532
1002,"Ballydehob","Cork","","Ballydehob,Cork","Ballydehob,Cork,Ireland",-9.4668655,51.5622448
119,"Ballydesmond","Cork","","Ballydesmond,Cork","Ballydesmond,Cork,Ireland",-9.2341524,52.1796564
1752,"Ballydesmond","Kerry","","Ballydesmond,Kerry","Ballydesmond,Kerry,Ireland",-9.2341524,52.1796564
2113,"Ballydonoghue","Kerry","","Ballydonoghue,Kerry","Ballydonoghue,Kerry,Ireland",-9.568268,52.4851784
1985,"Ballyduag","","","Ballyduag,","Ballyduag,,Ireland",-7.7859066,52.7303419
873,"Ballyduff","Waterford","","Ballyduff,Waterford","Ballyduff,Waterford,Ireland",-8.0512726,52.1477946
1018,"Ballyduff","Kerry","","Ballyduff,Kerry","Ballyduff,Kerry,Ireland",-9.6629052,52.4545516
1479,"Ballyduff Upper","Waterford","","Ballyduff Upper,Waterford","Ballyduff Upper,Waterford,Ireland",-8.0560027,52.1337101
2427,"Ballydurn","","","Ballydurn,","Ballydurn,,Ireland",-7.4061395,52.2517244
2479,"Ballyea","Clare","","Ballyea,Clare","Ballyea,Clare,Ireland",-9.0338327,52.7912463
1566,"Ballyfarnon","Roscommon","","Ballyfarnon,Roscommon","Ballyfarnon,Roscommon,Ireland",-8.2047173,54.0723661
1798,"Ballyfeard","Cork","","Ballyfeard,Cork","Ballyfeard,Cork,Ireland",-8.40693,51.75429
334,"Ballyfermot","Dublin","","Ballyfermot,Dublin","Ballyfermot,Dublin,Ireland",-6.3535598,53.3422507
506,"Ballyferriter","Kerry","","Ballyferriter,Kerry","Ballyferriter,Kerry,Ireland",-10.40599,52.16615
1813,"Ballyfin","Laois","","Ballyfin,Laois","Ballyfin,Laois,Ireland",-7.4196588,53.0521538
1585,"Ballyfinane","","","Ballyfinane,","Ballyfinane,,Ireland",-9.57762,52.20729
2024,"Ballyforan","Roscommon","","Ballyforan,Roscommon","Ballyforan,Roscommon,Ireland",-8.270058,53.4700864
1498,"Ballyfoyle","Kilkenny","","Ballyfoyle,Kilkenny","Ballyfoyle,Kilkenny,Ireland",-7.2322693,52.7217131
335,"Ballygall","Dublin","","Ballygall,Dublin","Ballygall,Dublin,Ireland",-6.2809366,53.3850373
5,"Ballygally","","","Ballygally,","Ballygally,,Ireland",-5.8598716,54.8958722
788,"Ballygar","Roscommon","","Ballygar,Roscommon","Ballygar,Roscommon,Ireland",-8.3257391,53.5225627
1407,"Ballygar","Galway","","Ballygar,Galway","Ballygar,Galway,Ireland",-8.3257391,53.5225627
1081,"Ballygarrett","Wexford","","Ballygarrett,Wexford","Ballygarrett,Wexford,Ireland",-6.2299674,52.5729847
120,"Ballygarvan","Cork","","Ballygarvan,Cork","Ballygarvan,Cork,Ireland",-8.4612549,51.824267
863,"Ballygawley","Tyrone","","Ballygawley,Tyrone","Ballygawley,Tyrone,Ireland",-7.0281899,54.46275
2098,"Ballygawley","Sligo","","Ballygawley,Sligo","Ballygawley,Sligo,Ireland",-8.4452435,54.1920204
2475,"Ballyglass","Mayo","","Ballyglass,Mayo","Ballyglass,Mayo,Ireland",-9.1723961,53.7401727
1257,"Ballyglunin","Galway","","Ballyglunin,Galway","Ballyglunin,Galway,Ireland",-8.7957313,53.4318125
1127,"Ballyguilemore","","","Ballyguilemore,","Ballyguilemore,,Ireland",-6.0454271,52.9642356
1968,"Ballygunner","Waterford","","Ballygunner,Waterford","Ballygunner,Waterford,Ireland",-7.0643689,52.2307546
1939,"Ballygunnermore","Waterford","","Ballygunnermore,Waterford","Ballygunnermore,Waterford,Ireland",-7.061812,52.212975
2425,"Ballygurteen","","","Ballygurteen,","Ballygurteen,,Ireland",-9.02662,51.67539
2170,"Ballyhack","Wexford","","Ballyhack,Wexford","Ballyhack,Wexford,Ireland",-6.964192,52.2484749
1053,"Ballyhahill","Limerick","","Ballyhahill,Limerick","Ballyhahill,Limerick,Ireland",-9.1905436,52.5598757
1697,"Ballyhaise","Cavan","","Ballyhaise,Cavan","Ballyhaise,Cavan,Ireland",-7.3155094,54.0473393
564,"Ballyhale","Kilkenny","","Ballyhale,Kilkenny","Ballyhale,Kilkenny,Ireland",-7.2002408,52.466657
1922,"Ballyharmon","Carlow","","Ballyharmon,Carlow","Ballyharmon,Carlow,Ireland",-6.9341359,52.8365072
706,"Ballyhaunis","Mayo","","Ballyhaunis,Mayo","Ballyhaunis,Mayo,Ireland",-8.7645957,53.7628378
1766,"Ballyhaunis","Roscommon","","Ballyhaunis,Roscommon","Ballyhaunis,Roscommon,Ireland",-8.7518199,53.6867556
1117,"Ballyhea","Cork","","Ballyhea,Cork","Ballyhea,Cork,Ireland",-8.6758571,52.3272078
1887,"Ballyheada","","","Ballyheada,","Ballyheada,,Ireland",-8.55955,51.80063
507,"Ballyheigue","Kerry","","Ballyheigue,Kerry","Ballyheigue,Kerry,Ireland",-9.8277419,52.3904645
2038,"Ballyhendricken","","","Ballyhendricken,","Ballyhendricken,,Ireland",-7.3292224,52.6416237
2515,"Ballyhogue","Wexford","","Ballyhogue,Wexford","Ballyhogue,Wexford,Ireland",-6.57535,52.41432
121,"Ballyhooly","Cork","","Ballyhooly,Cork","Ballyhooly,Cork,Ireland",-8.3980968,52.1452748
53,"Ballyjamesduff","Cavan","","Ballyjamesduff,Cavan","Ballyjamesduff,Cavan,Ireland",-7.2064562,53.8638736
2117,"Ballyknockan","Wicklow","","Ballyknockan,Wicklow","Ballyknockan,Wicklow,Ireland",-6.4982342,53.1008086
1198,"Ballylanders","Limerick","","Ballylanders,Limerick","Ballylanders,Limerick,Ireland",-8.3484024,52.3736218
1343,"Ballylanders","Limerick","","Ballylanders,Limerick","Ballylanders,Limerick,Ireland",-8.3484024,52.3736218
1712,"Ballylaneen","Waterford","","Ballylaneen,Waterford","Ballylaneen,Waterford,Ireland",-7.3998351,52.1731296
1748,"Ballyleague","Roscommon","","Ballyleague,Roscommon","Ballyleague,Roscommon,Ireland",-7.9961848,53.6807211
233,"Ballyliffin","Donegal","","Ballyliffin,Donegal","Ballyliffin,Donegal,Ireland",-7.3942123,55.2784391
1631,"Ballylinan","Laois","","Ballylinan,Laois","Ballylinan,Laois,Ireland",-7.0420455,52.9435883
508,"Ballylongford","Kerry","","Ballylongford,Kerry","Ballylongford,Kerry,Ireland",-9.4788097,52.5479992
2469,"Ballyloo","","","Ballyloo,","Ballyloo,,Ireland",-6.89673,52.7707903
2537,"Ballylooby","Tipperary","","Ballylooby,Tipperary","Ballylooby,Tipperary,Ireland",-7.9843018,52.3266843
828,"Ballymacarberry","","","Ballymacarberry,","Ballymacarberry,,Ireland",-7.7176505,52.2670804
2579,"Ballymacarberry","Waterford","","Ballymacarberry,Waterford","Ballymacarberry,Waterford,Ireland",-7.7176505,52.2670804
874,"Ballymacarbry","Waterford","","Ballymacarbry,Waterford","Ballymacarbry,Waterford,Ireland",-7.7176505,52.2670804
1617,"Ballymacarbry","Waterford","","Ballymacarbry,Waterford","Ballymacarbry,Waterford,Ireland",-7.7176505,52.2670804
2578,"Ballymacarbry","Tipperary","","Ballymacarbry,Tipperary","Ballymacarbry,Tipperary,Ireland",-7.7176505,52.2670804
2067,"Ballymacelligott","Kerry","","Ballymacelligott,Kerry","Ballymacelligott,Kerry,Ireland",-9.5980417,52.2463945
1938,"Ballymaclode","","","Ballymaclode,","Ballymaclode,,Ireland",-7.04634,52.23624
1259,"Ballymacoda","Cork","","Ballymacoda,Cork","Ballymacoda,Cork,Ireland",-7.9395743,51.8921093
2105,"Ballymacormack","Longford","","Ballymacormack,Longford","Ballymacormack,Longford,Ireland",-7.823,53.70644
1891,"Ballymacthomas","Cork","","Ballymacthomas,Cork","Ballymacthomas,Cork,Ireland",-8.4818976,51.9034431
1500,"Ballymacurley","Roscommon","","Ballymacurley,Roscommon","Ballymacurley,Roscommon,Ireland",-8.2958026,53.6966817
2244,"Ballymacurly","","","Ballymacurly,","Ballymacurly,,Ireland",-8.2958026,53.6966817
1549,"Ballymacward","Galway","","Ballymacward,Galway","Ballymacward,Galway,Ireland",-8.4875618,53.3805093
1981,"Ballymagorry","Tyrone","","Ballymagorry,Tyrone","Ballymagorry,Tyrone,Ireland",-7.4293801,54.8561
670,"Ballymahon","Longford","","Ballymahon,Longford","Ballymahon,Longford,Ireland",-7.7645964,53.5643632
1328,"Ballymahon","","","Ballymahon,","Ballymahon,,Ireland",-7.7645964,53.5643632
122,"Ballymakeera","Cork","","Ballymakeera,Cork","Ballymakeera,Cork,Ireland",-9.1454314,51.9363905
1611,"Ballymaloe","Cork","","Ballymaloe,Cork","Ballymaloe,Cork,Ireland",-8.075021,51.865083
1720,"Ballymartle","Cork","","Ballymartle,Cork","Ballymartle,Cork,Ireland",-8.5185348,51.7716049
6,"Ballymena","Antrim","","Ballymena,Antrim","Ballymena,Antrim,Ireland",-6.2802213,54.8652935
2101,"Ballymitty","Wexford","","Ballymitty,Wexford","Ballymitty,Wexford,Ireland",-6.7094604,52.2863705
447,"Ballymoe","Galway","","Ballymoe,Galway","Ballymoe,Galway,Ireland",-8.4618058,53.6940279
1105,"Ballymoe","Roscommon","","Ballymoe,Roscommon","Ballymoe,Roscommon,Ireland",-8.4618058,53.6940279
7,"Ballymoney","Antrim","","Ballymoney,Antrim","Ballymoney,Antrim,Ireland",-6.5173708,55.0704888
1155,"Ballymore","Westmeath","","Ballymore,Westmeath","Ballymore,Westmeath,Ireland",-7.6797464,53.4909131
539,"Ballymore Eustace","Kildare","","Ballymore Eustace,Kildare","Ballymore Eustace,Kildare,Ireland",-6.6148809,53.1330099
804,"Ballymote","Sligo","","Ballymote,Sligo","Ballymote,Sligo,Ireland",-8.5171827,54.0898288
2514,"Ballymount","Dublin","","Ballymount,Dublin","Ballymount,Dublin,Ireland",-6.3572264,53.3123898
336,"Ballymun","Dublin","","Ballymun,Dublin","Ballymun,Dublin,Ireland",-6.2657529,53.4101131
1774,"Ballymurn","Wexford","","Ballymurn,Wexford","Ballymurn,Wexford,Ireland",-6.4770469,52.4412829
2295,"Ballymurphy","Carlow","","Ballymurphy,Carlow","Ballymurphy,Carlow,Ireland",-6.861485,52.5722332
789,"Ballymurray","Roscommon","","Ballymurray,Roscommon","Ballymurray,Roscommon,Ireland",-8.1291146,53.6005098
70,"Ballynacally","Clare","","Ballynacally,Clare","Ballynacally,Clare,Ireland",-9.0664949,52.7192916
902,"Ballynacargy","Westmeath","","Ballynacargy,Westmeath","Ballynacargy,Westmeath,Ireland",-7.5364989,53.5820789
296,"Ballynahinch","Down","","Ballynahinch,Down","Ballynahinch,Down,Ireland",-5.8974314,54.4028842
1640,"Ballynahown","Galway","","Ballynahown,Galway","Ballynahown,Galway,Ireland",-9.49897,53.23979
1660,"Ballynanty","Limerick","","Ballynanty,Limerick","Ballynanty,Limerick,Ireland",-8.6373992,52.677694
2593,"Ballyneale","Limerick","","Ballyneale,Limerick","Ballyneale,Limerick,Ireland",-8.8457344,52.4492502
631,"Ballyneety","Limerick","","Ballyneety,Limerick","Ballyneety,Limerick,Ireland",-8.5490207,52.5977547
1951,"Ballynoe","Cork","","Ballynoe,Cork","Ballynoe,Cork,Ireland",-8.0975355,52.059685
1272,"Ballyogan","Dublin","","Ballyogan,Dublin","Ballyogan,Dublin,Ireland",-6.1934683,53.257304
2344,"Ballyorgan","Limerick","","Ballyorgan,Limerick","Ballyorgan,Limerick,Ireland",-8.4695944,52.318169
1348,"Ballyouskill","Kilkenny","","Ballyouskill,Kilkenny","Ballyouskill,Kilkenny,Ireland",-7.31426,52.83885
2367,"Ballyouskill","","","Ballyouskill,","Ballyouskill,,Ireland",-7.31426,52.83885
123,"Ballyphehane","Cork","","Ballyphehane,Cork","Ballyphehane,Cork,Ireland",-8.4751118,51.8781379
829,"Ballyporeen","Tipperary","","Ballyporeen,Tipperary","Ballyporeen,Tipperary,Ireland",-8.0992106,52.2701094
565,"Ballyragget","Kilkenny","","Ballyragget,Kilkenny","Ballyragget,Kilkenny,Ireland",-7.3338244,52.7886714
2619,"Ballyristeen","Waterford","","Ballyristeen,Waterford","Ballyristeen,Waterford,Ireland",-7.3607888,52.1612234
998,"Ballyroan","Laois","","Ballyroan,Laois","Ballyroan,Laois,Ireland",-7.3046676,52.9483991
1455,"Ballyroan","Dublin","","Ballyroan,Dublin","Ballyroan,Dublin,Ireland",-6.3035723,53.2878309
1639,"Ballysaggart","Waterford","","Ballysaggart,Waterford","Ballysaggart,Waterford,Ireland",-8.0123009,52.1842684
2054,"Ballysax","Kildare","","Ballysax,Kildare","Ballysax,Kildare,Ireland",-6.81287,53.12651
234,"Ballyshannon","Donegal","","Ballyshannon,Donegal","Ballyshannon,Donegal,Ireland",-8.1920416,54.5029882
1253,"Ballysheedy","Limerick","","Ballysheedy,Limerick","Ballysheedy,Limerick,Ireland",-8.57203,52.65558
632,"Ballysimon","Limerick","","Ballysimon,Limerick","Ballysimon,Limerick,Ireland",-8.5699601,52.6499376
2563,"Ballysloe","Tipperary","","Ballysloe,Tipperary","Ballysloe,Tipperary,Ireland",-7.6092,52.63779
2620,"Ballytivnan","Sligo","","Ballytivnan,Sligo","Ballytivnan,Sligo,Ireland",-8.4690079,54.2816599
1857,"Ballytore","Kildare","","Ballytore,Kildare","Ballytore,Kildare,Ireland",-6.8156295,53.009742
1679,"Ballytruckle","Waterford","","Ballytruckle,Waterford","Ballytruckle,Waterford,Ireland",-7.1091488,52.2501018
707,"Ballyvary","Mayo","","Ballyvary,Mayo","Ballyvary,Mayo,Ireland",-9.15104,53.89366
71,"Ballyvaughan","Clare","","Ballyvaughan,Clare","Ballyvaughan,Clare,Ireland",-9.1494233,53.1155333
1267,"Ballyvolane","Cork","","Ballyvolane,Cork","Ballyvolane,Cork,Ireland",-8.4522244,51.9204033
1484,"Ballyvourney","Cork","","Ballyvourney,Cork","Ballyvourney,Cork,Ireland",-9.1640894,51.9454917
2282,"Ballywalter","","","Ballywalter,","Ballywalter,,Ireland",-5.48437,54.5427301
1918,"Ballywilliam","Wexford","","Ballywilliam,Wexford","Ballywilliam,Wexford,Ireland",-6.8641515,52.4484488
1499,"Balrath","Meath","","Balrath,Meath","Balrath,Meath,Ireland",-6.4792704,53.624624
1971,"Balrothery","Dublin","","Balrothery,Dublin","Balrothery,Dublin,Ireland",-6.188471,53.5885512
124,"Baltimore","Cork","","Baltimore,Cork","Baltimore,Cork,Ireland",-9.3661093,51.4843274
955,"Baltinglass","","","Baltinglass,","Baltinglass,,Ireland",-6.71098,52.9407807
1230,"Baltinglass","Wicklow","","Baltinglass,Wicklow","Baltinglass,Wicklow,Ireland",-6.71098,52.9407807
1878,"Baltray","Louth","","Baltray,Louth","Baltray,Louth,Ireland",-6.2704904,53.7371107
1493,"Banada","","","Banada,","Banada,,Ireland",-8.8181563,54.0325655
769,"Banagher","Offaly","","Banagher,Offaly","Banagher,Offaly,Ireland",-7.9861049,53.1901112
297,"Banbridge","Down","","Banbridge,Down","Banbridge,Down,Ireland",-6.2704803,54.348729
125,"Bandon","Cork","","Bandon,Cork","Bandon,Cork,Ireland",-8.7253133,51.7472382
1281,"Banduff","","","Banduff,","Banduff,,Ireland",-8.4271717,51.9209192
298,"Bangor","Down","","Bangor,Down","Bangor,Down,Ireland",-5.6730648,54.6541971
1974,"Bangor Erris","Mayo","","Bangor Erris,Mayo","Bangor Erris,Mayo,Ireland",-9.7428784,54.1446484
1174,"Bannow","Wexford","","Bannow,Wexford","Bannow,Wexford,Ireland",-6.7845477,52.210453
2590,"Banogue","Limerick","","Banogue,Limerick","Banogue,Limerick,Ireland",-8.49902,52.4672
830,"Bansha","Tipperary","","Bansha,Tipperary","Bansha,Tipperary,Ireland",-8.0642959,52.4482369
126,"Banteer","Cork","","Banteer,Cork","Banteer,Cork,Ireland",-8.8935092,52.1294606
127,"Bantry","Cork","","Bantry,Cork","Bantry,Cork,Ireland",-9.4525763,51.6800803
2437,"Barefield","Clare","","Barefield,Clare","Barefield,Clare,Ireland",-8.9476236,52.8876138
448,"Barna","Galway","","Barna,Galway","Barna,Galway,Ireland",-9.1474685,53.251812
2576,"Barnatra","Mayo","","Barnatra,Mayo","Barnatra,Mayo,Ireland",-9.8407592,54.2217306
1377,"Barndarrig","Wicklow","","Barndarrig,Wicklow","Barndarrig,Wicklow,Ireland",-6.11336,52.90998
235,"Barnesmore","Donegal","","Barnesmore,Donegal","Barnesmore,Donegal,Ireland",-7.9955539,54.6929621
918,"Barntown","Wexford","","Barntown,Wexford","Barntown,Wexford,Ireland",-6.5307588,52.3412341
2110,"Barraduff","Kerry","","Barraduff,Kerry","Barraduff,Kerry,Ireland",-9.3363002,52.0600263
2109,"Barroe","Sligo","","Barroe,Sligo","Barroe,Sligo,Ireland",-8.60349,54.11344
875,"Barronstrand","","","Barronstrand,","Barronstrand,,Ireland",-7.1115648,52.2616697
2503,"Barryroe","Cork","","Barryroe,Cork","Barryroe,Cork,Ireland",-9.4025569,51.6239265
2303,"Bartlemy","Cork","","Bartlemy,Cork","Bartlemy,Cork,Ireland",-8.2642626,52.048897
733,"Batterstown","Meath","","Batterstown,Meath","Batterstown,Meath,Ireland",-6.5357288,53.4685215
2093,"Bawnboy","Cavan","","Bawnboy,Cavan","Bawnboy,Cavan,Ireland",-7.6767664,54.1212463
1442,"Bayside","Dublin","","Bayside,Dublin","Bayside,Dublin,Ireland",-6.1432432,53.3867525
449,"Bealadangan","Galway","","Bealadangan,Galway","Bealadangan,Galway,Ireland",-9.6091329,53.3195772
2438,"Bealaha","Clare","","Bealaha,Clare","Bealaha,Clare,Ireland",-9.5883475,52.7180057
1689,"Beale","Kerry","","Beale,Kerry","Beale,Kerry,Ireland",-9.61953,52.5668
2371,"Bealnamorrive","Cork","","Bealnamorrive,Cork","Bealnamorrive,Cork,Ireland",-8.8619624,51.9343846
128,"Beara","Cork","","Beara,Cork","Beara,Cork,Ireland",-9.7019227,51.7481667
509,"Beaufort","Kerry","","Beaufort,Kerry","Beaufort,Kerry,Ireland",-9.6333333,52.0693796
1075,"Beaumont","Dublin","","Beaumont,Dublin","Beaumont,Dublin,Ireland",-6.2289757,53.3857202
1263,"Beaumont","Cork","","Beaumont,Cork","Beaumont,Cork,Ireland",-8.4267435,51.8918489
1881,"Belcamp","Dublin","","Belcamp,Dublin","Belcamp,Dublin,Ireland",-6.1856574,53.4016429
2223,"Belcarra","Mayo","","Belcarra,Mayo","Belcarra,Mayo,Ireland",-9.2141371,53.8022746
1692,"Belclare","Galway","","Belclare,Galway","Belclare,Galway,Ireland",-8.9337285,53.4908977
1835,"Belcoo","Fermanagh","","Belcoo,Fermanagh","Belcoo,Fermanagh,Ireland",-7.871449,54.2964532
8,"Belfast","Antrim","","Belfast,Antrim","Belfast,Antrim,Ireland",-6.2072498,54.7195338
299,"Belfast","Down","","Belfast,Down","Belfast,Down,Ireland",-5.8462557,54.634447
1035,"Belgard","Dublin","","Belgard,Dublin","Belgard,Dublin,Ireland",-6.4001581,53.3027711
129,"Belgooly","Cork","","Belgooly,Cork","Belgooly,Cork,Ireland",-8.4815869,51.7368994
1036,"Bell Harbour","Clare","","Bell Harbour,Clare","Bell Harbour,Clare,Ireland",-9.0708333,53.1255556
1580,"Bellaghy","Sligo","","Bellaghy,Sligo","Bellaghy,Sligo,Ireland",-6.5189247,54.8082458
429,"Belleek","Fermanagh","","Belleek,Fermanagh","Belleek,Fermanagh,Ireland",-8.0914889,54.4801114
2478,"Belleeks","Armagh","","Belleeks,Armagh","Belleeks,Armagh,Ireland",-6.4856501,54.18432
1913,"Bellewstown","Meath","","Bellewstown,Meath","Bellewstown,Meath,Ireland",-6.3487862,53.6438669
1512,"Belmont","Offaly","","Belmont,Offaly","Belmont,Offaly,Ireland",-7.8951652,53.2560708
2050,"Belmont","","","Belmont,","Belmont,,Ireland",-7.8951652,53.2560708
708,"Belmullet","Mayo","","Belmullet,Mayo","Belmullet,Mayo,Ireland",-9.9876028,54.2238996
2123,"Belnaleck","Fermanagh","","Belnaleck,Fermanagh","Belnaleck,Fermanagh,Ireland",-7.6422052,54.2964196
805,"Beltra","Sligo","","Beltra,Sligo","Beltra,Sligo,Ireland",-8.624828,54.2218763
54,"Belturbet","Cavan","","Belturbet,Cavan","Belturbet,Cavan,Ireland",-7.4496679,54.1019056
1228,"Bennekerry","Carlow","","Bennekerry,Carlow","Bennekerry,Carlow,Ireland",-6.8890898,52.8401945
566,"Bennettsbridge","Kilkenny","","Bennettsbridge,Kilkenny","Bennettsbridge,Kilkenny,Ireland",-7.1842575,52.5916575
1824,"Beragh","Tyrone","","Beragh,Tyrone","Beragh,Tyrone,Ireland",-7.160574,54.550374
1306,"Bere Island","Cork","","Bere Island,Cork","Bere Island,Cork,Ireland",-9.8668891,51.6332349
1197,"Berrings","Cork","","Berrings,Cork","Berrings,Cork,Ireland",-8.6974398,51.9374329
1841,"Bessbrook","Armagh","","Bessbrook,Armagh","Bessbrook,Armagh,Ireland",-6.39423,54.1956601
734,"Bettystown","Meath","","Bettystown,Meath","Bettystown,Meath,Ireland",-6.246068,53.6983238
2315,"Bigwood","Kilkenny","","Bigwood,Kilkenny","Bigwood,Kilkenny,Ireland",-7.1150153,52.3352727
1406,"Bilboa","Carlow","","Bilboa,Carlow","Bilboa,Carlow,Ireland",-7.035719,52.800542
1042,"Birdhill","Tipperary","","Birdhill,Tipperary","Birdhill,Tipperary,Ireland",-8.4371207,52.7674997
771,"Birr","Offaly","","Birr,Offaly","Birr,Offaly,Ireland",-7.9096882,53.0980052
2458,"Birr","Tipperary","","Birr,Tipperary","Birr,Tipperary,Ireland",-7.9096882,53.0980052
130,"Bishopstown","Cork","","Bishopstown,Cork","Bishopstown,Cork,Ireland",-8.5326058,51.8779553
1658,"Bishopswater","Wexford","","Bishopswater,Wexford","Bishopswater,Wexford,Ireland",-6.468673,52.3289297
55,"Blacklion","Cavan","","Blacklion,Cavan","Blacklion,Cavan,Ireland",-7.8751276,54.2920639
131,"Blackpool","Cork","","Blackpool,Cork","Blackpool,Cork,Ireland",-8.4739568,51.9141606
132,"Blackrock","Cork","","Blackrock,Cork","Blackrock,Cork,Ireland",-8.4024717,51.8997347
337,"Blackrock","Dublin","","Blackrock,Dublin","Blackrock,Dublin,Ireland",-6.1778335,53.3021597
682,"Blackrock","Louth","","Blackrock,Louth","Blackrock,Louth,Ireland",-6.361808,53.9680416
1935,"Blacksod","Mayo","","Blacksod,Mayo","Blacksod,Mayo,Ireland",-10.0688502,54.1006423
1923,"Blackwater","Wexford","","Blackwater,Wexford","Blackwater,Wexford,Ireland",-6.3469303,52.4473539
1941,"Blainroe","Wicklow","","Blainroe,Wicklow","Blainroe,Wicklow,Ireland",-6.0265,52.94633
338,"Blanchardstown","Dublin","","Blanchardstown,Dublin","Blanchardstown,Dublin,Ireland",-6.3759736,53.3842081
133,"Blarney","Cork","","Blarney,Cork","Blarney,Cork,Ireland",-8.5612438,51.9338275
956,"Blessington","","","Blessington,","Blessington,,Ireland",-6.5340687,53.1696579
1169,"Blessington","Wicklow","","Blessington,Wicklow","Blessington,Wicklow,Ireland",-6.5340687,53.1696579
1225,"Blueball","Offaly","","Blueball,Offaly","Blueball,Offaly,Ireland",-7.6112313,53.2299462
1219,"Bluebell","Dublin","","Bluebell,Dublin","Bluebell,Dublin,Ireland",-6.3573407,53.3282666
1684,"Bodyke","Clare","","Bodyke,Clare","Bodyke,Clare,Ireland",-8.5967058,52.8843406
2531,"Bofeenaun","Mayo","","Bofeenaun,Mayo","Bofeenaun,Mayo,Ireland",-9.322809,53.9866365
1614,"Boher","Limerick","","Boher,Limerick","Boher,Limerick,Ireland",-8.4645868,52.6251911
1037,"Boherbue","Cork","","Boherbue,Cork","Boherbue,Cork,Ireland",-9.0684828,52.1582386
1902,"Boherlahan","Tipperary","","Boherlahan,Tipperary","Boherlahan,Tipperary,Ireland",-7.8935629,52.5730161
450,"Bohermore","Galway","","Bohermore,Galway","Bohermore,Galway,Ireland",-9.04305,53.28002
1336,"Bohernabreena","Dublin","","Bohernabreena,Dublin","Bohernabreena,Dublin,Ireland",-6.3580065,53.265975
2063,"Boho","","","Boho,","Boho,,Ireland",-7.79143,54.333094
1342,"Bohola","Mayo","","Bohola,Mayo","Bohola,Mayo,Ireland",-9.0549945,53.9025842
1615,"Bonane","Kerry","","Bonane,Kerry","Bonane,Kerry,Ireland",-9.538403,51.8155082
876,"Bonmahon","Waterford","","Bonmahon,Waterford","Bonmahon,Waterford,Ireland",-7.365204,52.1405503
1087,"Bonnettsrath","","","Bonnettsrath,","Bonnettsrath,,Ireland",-7.2430208,52.6794394
2188,"Bonniconlon","Mayo","","Bonniconlon,Mayo","Bonniconlon,Mayo,Ireland",-9.03075,54.10909
1605,"Bonnybrook","Dublin","","Bonnybrook,Dublin","Bonnybrook,Dublin,Ireland",-6.2055346,53.3958521
339,"Booterstown","Dublin","","Booterstown,Dublin","Booterstown,Dublin,Ireland",-6.1966947,53.3088177
2647,"Boreenmanna Road","Cork","","Boreenmanna Road,Cork","Boreenmanna Road,Cork,Ireland",-8.4477099,51.8912877
1422,"Bornacoola","Leitrim","","Bornacoola,Leitrim","Bornacoola,Leitrim,Ireland",-7.865781,53.8293513
40,"Borris","Carlow","","Borris,Carlow","Borris,Carlow,Ireland",-6.9230824,52.5998053
2424,"Borris","","","Borris,","Borris,,Ireland",-6.9230824,52.5998053
2540,"Borris","Tipperary","","Borris,Tipperary","Borris,Tipperary,Ireland",-7.7044979,52.6750466
593,"Borris-in-Ossory","Laois","","Borris-in-Ossory,Laois","Borris-in-Ossory,Laois,Ireland",-7.6310983,52.9391777
831,"Borrisokane","Tipperary","","Borrisokane,Tipperary","Borrisokane,Tipperary,Ireland",-8.1273257,52.9963736
832,"Borrisoleigh","Tipperary","","Borrisoleigh,Tipperary","Borrisoleigh,Tipperary,Ireland",-7.9578875,52.7525257
790,"Boyle","Roscommon","","Boyle,Roscommon","Boyle,Roscommon,Ireland",-8.2972757,53.9722082
1553,"Boyle","Sligo","","Boyle,Sligo","Boyle,Sligo,Ireland",-8.2972757,53.9722082
1592,"Bracknagh","Offaly","","Bracknagh,Offaly","Bracknagh,Offaly,Ireland",-7.0981836,53.209205
1957,"Braddox","Monaghan","","Braddox,Monaghan","Braddox,Monaghan,Ireland",-6.88952,54.19814
2247,"Brandon","Kerry","","Brandon,Kerry","Brandon,Kerry,Ireland",-10.1625046,52.2664124
340,"Bray","Dublin","","Bray,Dublin","Bray,Dublin,Ireland",-6.1110741,53.200903
957,"Bray","","","Bray,","Bray,,Ireland",-6.1110741,53.200903
987,"Bray","Wicklow","","Bray,Wicklow","Bray,Wicklow,Ireland",-6.1110741,53.200903
236,"Bridgend","Donegal","","Bridgend,Donegal","Bridgend,Donegal,Ireland",-7.3821884,55.0422391
1000,"Bridgetown","Wexford","","Bridgetown,Wexford","Bridgetown,Wexford,Ireland",-6.549064,52.2302422
1274,"Bridgetown","Clare","","Bridgetown,Clare","Bridgetown,Clare,Ireland",-8.5263526,52.7614406
341,"Brittas","Dublin","","Brittas,Dublin","Brittas,Dublin,Ireland",-6.4475768,53.2278972
1153,"Brittas","Limerick","","Brittas,Limerick","Brittas,Limerick,Ireland",-8.4200156,52.6107997
958,"Brittas Bay","","","Brittas Bay,","Brittas Bay,,Ireland",-6.06203,52.88536
1277,"Brittas Bay","Wicklow","","Brittas Bay,Wicklow","Brittas Bay,Wicklow,Ireland",-6.06203,52.88536
72,"Broadford","Clare","","Broadford,Clare","Broadford,Clare,Ireland",-8.6328674,52.8060302
1046,"Broadford","Limerick","","Broadford,Limerick","Broadford,Limerick,Ireland",-8.9736273,52.3459256
1085,"Broadford","Kildare","","Broadford,Kildare","Broadford,Kildare,Ireland",-6.960683,53.4244724
2199,"Broadstone","Dublin","","Broadstone,Dublin","Broadstone,Dublin,Ireland",-6.2729584,53.3596171
920,"Broadway","Wexford","","Broadway,Wexford","Broadway,Wexford,Ireland",-6.38716,52.21909
1663,"Brookeborough","Fermanagh","","Brookeborough,Fermanagh","Brookeborough,Fermanagh,Ireland",-7.40412,54.31595
1845,"Brookfield","Dublin","","Brookfield,Dublin","Brookfield,Dublin,Ireland",-6.4086177,53.2884091
2364,"Broomfield","Monaghan","","Broomfield,Monaghan","Broomfield,Monaghan,Ireland",-6.7020752,54.0680312
1693,"Brosna","Kerry","","Brosna,Kerry","Brosna,Kerry,Ireland",-9.2707098,52.3127106
2607,"Brownrath","Meath","","Brownrath,Meath","Brownrath,Meath,Ireland",-6.5624426,53.429345
1604,"Brownshill","Carlow","","Brownshill,Carlow","Brownshill,Carlow,Ireland",-6.8811309,52.8374752
2665,"Brownstown","","","Brownstown,","Brownstown,,Ireland",-6.94318,53.27041
1994,"Bruckless","Donegal","","Bruckless,Donegal","Bruckless,Donegal,Ireland",-8.3882318,54.6399972
633,"Bruff","Limerick","","Bruff,Limerick","Bruff,Limerick,Ireland",-8.5470439,52.4755947
634,"Bruree","Limerick","","Bruree,Limerick","Bruree,Limerick,Ireland",-8.6620227,52.4242877
2408,"Bruskey","","","Bruskey,","Bruskey,,Ireland",-7.40709,53.88835
2130,"Brusna","Roscommon","","Brusna,Roscommon","Brusna,Roscommon,Ireland",-8.647042,53.9150153
2306,"Bryansford","","","Bryansford,","Bryansford,,Ireland",-5.9367,54.22808
237,"Bunbeg","Donegal","","Bunbeg,Donegal","Bunbeg,Donegal,Ireland",-8.3003485,55.060874
921,"Bunclody","Wexford","","Bunclody,Wexford","Bunclody,Wexford,Ireland",-6.652193,52.6550857
1848,"Bunclody","","","Bunclody,","Bunclody,,Ireland",-6.652193,52.6550857
238,"Buncrana","Donegal","","Buncrana,Donegal","Buncrana,Donegal,Ireland",-7.4560128,55.1365797
239,"Bundoran","Donegal","","Bundoran,Donegal","Bundoran,Donegal,Ireland",-8.277934,54.4791416
1846,"Bunnanadden","Sligo","","Bunnanadden,Sligo","Bunnanadden,Sligo,Ireland",-8.60494,54.05259
2261,"Bunninadden","Sligo","","Bunninadden,Sligo","Bunninadden,Sligo,Ireland",-8.60494,54.05259
2575,"Bunnoe","Cavan","","Bunnoe,Cavan","Bunnoe,Cavan,Ireland",-7.2275072,54.0640556
73,"Bunratty","Clare","","Bunratty,Clare","Bunratty,Clare,Ireland",-8.8111283,52.698874
1982,"Burncourt","Tipperary","","Burncourt,Tipperary","Burncourt,Tipperary,Ireland",-8.0792299,52.3113101
240,"Burnfoot","Donegal","","Burnfoot,Donegal","Burnfoot,Donegal,Ireland",-7.4049447,55.0583056
1280,"Burnfort","Cork","","Burnfort,Cork","Burnfort,Cork,Ireland",-8.599543,52.0662725
2003,"Burrishoole","","","Burrishoole,","Burrishoole,,Ireland",-9.56876,53.89962
2116,"Burt","Donegal","","Burt,Donegal","Burt,Donegal,Ireland",-7.42848,55.04004
241,"Burtonport","Donegal","","Burtonport,Donegal","Burtonport,Donegal,Ireland",-8.4326581,54.9845286
9,"Bushmills","","","Bushmills,","Bushmills,,Ireland",-6.52346,55.20506
1079,"Bushypark","Galway","","Bushypark,Galway","Bushypark,Galway,Ireland",-9.0949709,53.2956128
1664,"Butlersbridge","Cavan","","Butlersbridge,Cavan","Butlersbridge,Cavan,Ireland",-7.3769588,54.0452119
1561,"Butlerstown","Waterford","","Butlerstown,Waterford","Butlerstown,Waterford,Ireland",-7.1781459,52.2295939
2648,"Butlerstown","Cork","","Butlerstown,Cork","Butlerstown,Cork,Ireland",-8.7282193,51.5995567
135,"Buttevant","Cork","","Buttevant,Cork","Buttevant,Cork,Ireland",-8.6701247,52.2321335
1827,"Bweeng","Cork","","Bweeng,Cork","Bweeng,Cork,Ireland",-8.7231577,52.0448011
342,"Cabinteely","Dublin","","Cabinteely,Dublin","Cabinteely,Dublin,Ireland",-6.1595568,53.2649538
343,"Cabra","Dublin","","Cabra,Dublin","Cabra,Dublin,Ireland",-6.3023348,53.3673946
1207,"Cabra West","Dublin","","Cabra West,Dublin","Cabra West,Dublin,Ireland",-6.298105,53.3678742
74,"Caher","Clare","","Caher,Clare","Caher,Clare,Ireland",-8.6478409,52.9663647
2273,"Caheragh","Cork","","Caheragh,Cork","Caheragh,Cork,Ireland",-9.3065158,51.6325484
635,"Caherconlish","Limerick","","Caherconlish,Limerick","Caherconlish,Limerick,Ireland",-8.472297,52.5951557
510,"Caherdaniel","Kerry","","Caherdaniel,Kerry","Caherdaniel,Kerry,Ireland",-10.0995294,51.7690125
636,"Caherdavin","Limerick","","Caherdavin,Limerick","Caherdavin,Limerick,Ireland",-8.6699886,52.6692471
1282,"Caherlistrane","Galway","","Caherlistrane,Galway","Caherlistrane,Galway,Ireland",-9.0203678,53.4974856
2324,"Cahersiveen","Kerry","","Cahersiveen,Kerry","Cahersiveen,Kerry,Ireland",-10.2209047,51.9477992
833,"Cahir","Tipperary","","Cahir,Tipperary","Cahir,Tipperary,Ireland",-7.925247,52.3745296
511,"Cahirciveen","Kerry","","Cahirciveen,Kerry","Cahirciveen,Kerry,Ireland",-10.2209047,51.9477992
2355,"Cahore","Wexford","","Cahore,Wexford","Cahore,Wexford,Ireland",-6.2026666,52.5602786
2204,"Caledon","","","Caledon,","Caledon,,Ireland",-6.8375901,54.3512399
567,"Callan","Kilkenny","","Callan,Kilkenny","Callan,Kilkenny,Ireland",-7.3920332,52.5448213
1831,"Calry","Sligo","","Calry,Sligo","Calry,Sligo,Ireland",-8.3944489,54.2843521
1544,"Caltra","Galway","","Caltra,Galway","Caltra,Galway,Ireland",-8.4355564,53.4352939
2162,"Caltragh","","","Caltragh,","Caltragh,,Ireland",-8.4810604,54.2579584
2498,"Camlough","Armagh","","Camlough,Armagh","Camlough,Armagh,Ireland",-6.4106902,54.18044
922,"Camolin","Wexford","","Camolin,Wexford","Camolin,Wexford,Ireland",-6.4263356,52.6156787
1516,"Camp","Kerry","","Camp,Kerry","Camp,Kerry,Ireland",-9.9089156,52.2209383
923,"Campile","Wexford","","Campile,Wexford","Campile,Wexford,Ireland",-6.9412808,52.2876617
1175,"Camross","Laois","","Camross,Laois","Camross,Laois,Ireland",-7.5976758,53.0034062
2211,"Camross","Wexford","","Camross,Wexford","Camross,Wexford,Ireland",-6.6987625,52.3738146
2102,"Camus","Galway","","Camus,Galway","Camus,Galway,Ireland",-9.5563808,53.3731143
1794,"Canningstown","","","Canningstown,","Canningstown,,Ireland",-7.0474192,53.9808084
1894,"Canovee","Cork","","Canovee,Cork","Canovee,Cork,Ireland",-8.85553,51.88874
1876,"Cúil Aodha","Cork","","Cúil Aodha,Cork","Cúil Aodha,Cork,Ireland",-9.2177972,51.9282765
1610,"Cape Clear","Cork","","Cape Clear,Cork","Cape Clear,Cork,Ireland",-9.4922606,51.4387985
877,"Cappagh","Waterford","","Cappagh,Waterford","Cappagh,Waterford,Ireland",-7.769051,51.9535856
2625,"Cappagh","Limerick","","Cappagh,Limerick","Cappagh,Limerick,Ireland",-8.8959958,52.5566381
637,"Cappamore","Limerick","","Cappamore,Limerick","Cappamore,Limerick,Ireland",-8.3368804,52.6152436
835,"Cappawhite","Tipperary","","Cappawhite,Tipperary","Cappawhite,Tipperary,Ireland",-8.164659,52.5822151
878,"Cappoquin","Waterford","","Cappoquin,Waterford","Cappoquin,Waterford,Ireland",-7.8427438,52.1462713
1213,"Caragh","Kildare","","Caragh,Kildare","Caragh,Kildare,Ireland",-6.7290731,53.2373698
2340,"Caramana","","","Caramana,","Caramana,,Ireland",-7.6920536,53.1423672
540,"Carbury","Kildare","","Carbury,Kildare","Carbury,Kildare,Ireland",-6.9726095,53.3571946
683,"Carlingford","Louth","","Carlingford,Louth","Carlingford,Louth,Ireland",-6.190181,54.0468677
41,"Carlow Town","Carlow","","Carlow Town,Carlow","Carlow Town,Carlow,Ireland",-6.9341359,52.8365072
452,"Carna","Galway","","Carna,Galway","Carna,Galway,Ireland",-9.8361074,53.3242168
2476,"Carnacon","Mayo","","Carnacon,Mayo","Carnacon,Mayo,Ireland",-9.22033,53.73028
2557,"Carnaross","Meath","","Carnaross,Meath","Carnaross,Meath,Ireland",-6.955086,53.7506623
242,"Carndonagh","Donegal","","Carndonagh,Donegal","Carndonagh,Donegal,Ireland",-7.2668905,55.2506229
924,"Carne","Wexford","","Carne,Wexford","Carne,Wexford,Ireland",-6.3592,52.1977
959,"Carnew","","","Carnew,","Carnew,,Ireland",-6.4992316,52.7096658
1465,"Carnew","Wicklow","","Carnew,Wicklow","Carnew,Wicklow,Ireland",-6.4992316,52.7096658
806,"Carney","Sligo","","Carney,Sligo","Carney,Sligo,Ireland",-8.5277091,54.3386704
10,"Carnlough","Antrim","","Carnlough,Antrim","Carnlough,Antrim,Ireland",-5.9924101,54.99032
2190,"Carpenterstown","Dublin","","Carpenterstown,Dublin","Carpenterstown,Dublin,Ireland",-6.3890882,53.3748247
2310,"Carracastle","Mayo","","Carracastle,Mayo","Carracastle,Mayo,Ireland",-8.6958963,53.9510483
1050,"Carraig na bhFear","Cork","","Carraig na bhFear,Cork","Carraig na bhFear,Cork,Ireland",-8.4736075,51.9897543
453,"Carraroe","Galway","","Carraroe,Galway","Carraroe,Galway,Ireland",-9.5982671,53.2641084
1589,"Carraroe","Sligo","","Carraroe,Sligo","Carraroe,Sligo,Ireland",-8.4678601,54.25039
243,"Carrick","Donegal","","Carrick,Donegal","Carrick,Donegal,Ireland",-8.6327484,54.6577244
1847,"Carrickaboy","Cavan","","Carrickaboy,Cavan","Carrickaboy,Cavan,Ireland",-7.3215317,53.9315939
1784,"Carrickboy","Longford","","Carrickboy,Longford","Carrickboy,Longford,Ireland",-7.6862179,53.6323765
11,"Carrickfergus","Antrim","","Carrickfergus,Antrim","Carrickfergus,Antrim,Ireland",-5.8101207,54.7261871
2161,"Carrickfinn","Donegal","","Carrickfinn,Donegal","Carrickfinn,Donegal,Ireland",-8.3309185,55.0540311
756,"Carrickmacross","Monaghan","","Carrickmacross,Monaghan","Carrickmacross,Monaghan,Ireland",-6.7188238,53.9779778
2337,"Carrickmacross","","","Carrickmacross,","Carrickmacross,,Ireland",-6.7188238,53.9779778
1932,"Carrickmines","Dublin","","Carrickmines,Dublin","Carrickmines,Dublin,Ireland",-6.1828521,53.2472036
604,"Carrick-on-Shannon","Leitrim","","Carrick-on-Shannon,Leitrim","Carrick-on-Shannon,Leitrim,Ireland",-8.0861878,53.9451156
1083,"Carrick-on-Shannon","Roscommon","","Carrick-on-Shannon,Roscommon","Carrick-on-Shannon,Roscommon,Ireland",-8.0861878,53.9451156
836,"Carrick-on-Suir","Tipperary","","Carrick-on-Suir,Tipperary","Carrick-on-Suir,Tipperary,Ireland",-7.4189708,52.3476495
2397,"Carrick-on-Suir","Waterford","","Carrick-on-Suir,Waterford","Carrick-on-Suir,Waterford,Ireland",-7.4189708,52.3476495
2099,"Carrickroe","Monaghan","","Carrickroe,Monaghan","Carrickroe,Monaghan,Ireland",-7.0275183,54.357732
1575,"Carrigadrohid","Cork","","Carrigadrohid,Cork","Carrigadrohid,Cork,Ireland",-8.8610634,51.9025937
75,"Carrigaholt","Clare","","Carrigaholt,Clare","Carrigaholt,Clare,Ireland",-9.7096712,52.6047901
136,"Carrigaline","Cork","","Carrigaline,Cork","Carrigaline,Cork,Ireland",-8.3914957,51.817905
605,"Carrigallen","Leitrim","","Carrigallen,Leitrim","Carrigallen,Leitrim,Ireland",-7.6443259,53.9769348
1705,"Carriganima","Cork","","Carriganima,Cork","Carriganima,Cork,Ireland",-9.03923,51.97375
2365,"Carrigans","Donegal","Cork","Carrigans,Donegal","Carrigans,Donegal,Ireland",-7.4282852,54.9512185
244,"Carrigart","Donegal","","Carrigart,Donegal","Carrigart,Donegal,Ireland",-7.7932777,55.1775506
1379,"Carrigeen","Kilkenny","","Carrigeen,Kilkenny","Carrigeen,Kilkenny,Ireland",-7.21599,52.27089
2229,"Carrigeen","Waterford","","Carrigeen,Waterford","Carrigeen,Waterford,Ireland",-7.5736648,52.2685889
1339,"Carrigkerry","Limerick","","Carrigkerry,Limerick","Carrigkerry,Limerick,Ireland",-9.1484838,52.4946971
1065,"Carrignagour","","","Carrignagour,","Carrignagour,,Ireland",-8.477924,51.9891078
137,"Carrignavar","Cork","","Carrignavar,Cork","Carrignavar,Cork,Ireland",-8.477924,51.9891078
925,"Carrig-on-Bannow","Wexford","","Carrig-on-Bannow,Wexford","Carrig-on-Bannow,Wexford,Ireland",-6.7345428,52.234749
138,"Carrigrohane","Cork","","Carrigrohane,Cork","Carrigrohane,Cork,Ireland",-8.5634382,51.8956313
139,"Carrigtwohill","Cork","","Carrigtwohill,Cork","Carrigtwohill,Cork,Ireland",-8.2589402,51.9094919
76,"Carron","Clare","","Carron,Clare","Carron,Clare,Ireland",-9.0760449,53.0376019
2566,"Carrowbrowne","Galway","","Carrowbrowne,Galway","Carrowbrowne,Galway,Ireland",-9.017811,53.3244056
1156,"Carrowmore","","","Carrowmore,","Carrowmore,,Ireland",-8.5197194,54.2507095
2206,"Carrowroe","Sligo","","Carrowroe,Sligo","Carrowroe,Sligo,Ireland",-8.4797111,54.2487914
2106,"Carryduff","","","Carryduff,","Carryduff,,Ireland",-5.889557,54.5145825
2186,"Carryglass","","","Carryglass,","Carryglass,,Ireland",-7.6920536,53.1423672
837,"Cashel","Tipperary","","Cashel,Tipperary","Cashel,Tipperary,Ireland",-7.8915829,52.5159097
2222,"Cashel","Galway","","Cashel,Galway","Cashel,Galway,Ireland",-9.8027135,53.427798
807,"Castlebaldwin","Sligo","","Castlebaldwin,Sligo","Castlebaldwin,Sligo,Ireland",-8.3758809,54.0792486
709,"Castlebar","Mayo","","Castlebar,Mayo","Castlebar,Mayo,Ireland",-9.2879257,53.8550014
684,"Castlebellingham","Louth","","Castlebellingham,Louth","Castlebellingham,Louth,Ireland",-6.3894299,53.8978634
757,"Castleblayney","Monaghan","","Castleblayney,Monaghan","Castleblayney,Monaghan,Ireland",-6.7397374,54.120659
926,"Castlebridge","Wexford","","Castlebridge,Wexford","Castlebridge,Wexford,Ireland",-6.4502872,52.3824281
568,"Castlecomer","Kilkenny","","Castlecomer,Kilkenny","Castlecomer,Kilkenny,Ireland",-7.2095454,52.805467
638,"Castleconnell","Limerick","","Castleconnell,Limerick","Castleconnell,Limerick,Ireland",-8.4932473,52.7156553
1109,"Castleconnor","Sligo","","Castleconnor,Sligo","Castleconnor,Sligo,Ireland",-9.1209836,54.1536061
791,"Castlecoote","Roscommon","","Castlecoote,Roscommon","Castlecoote,Roscommon,Ireland",-8.2905059,53.613264
1644,"Castlecove","Kerry","","Castlecove,Kerry","Castlecove,Kerry,Ireland",-10.0367448,51.779124
217,"Castledawson","Derry","","Castledawson,Derry","Castledawson,Derry,Ireland",-6.5579191,54.7782341
1520,"Castlederg","Tyrone","","Castlederg,Tyrone","Castlederg,Tyrone,Ireland",-7.5936714,54.7097899
541,"Castledermot","Kildare","","Castledermot,Kildare","Castledermot,Kildare,Ireland",-6.8375671,52.9118755
245,"Castlefin","Donegal","","Castlefin,Donegal","Castlefin,Donegal,Ireland",-7.5895814,54.802999
1454,"Castlefreke","Cork","","Castlefreke,Cork","Castlefreke,Cork,Ireland",-8.9637243,51.5730266
2182,"Castlegal","Sligo","","Castlegal,Sligo","Castlegal,Sligo,Ireland",-8.4104284,54.4553811
1011,"Castlegar","Galway","","Castlegar,Galway","Castlegar,Galway,Ireland",-9.02127,53.29823
1010,"Castlegregory","Kerry","","Castlegregory,Kerry","Castlegregory,Kerry,Ireland",-10.0207218,52.2534651
1508,"Castlehaven","Cork","","Castlehaven,Cork","Castlehaven,Cork,Ireland",-9.1986048,51.5121436
1815,"Castleinch","Kilkenny","","Castleinch,Kilkenny","Castleinch,Kilkenny,Ireland",-7.3082898,52.6238273
513,"Castleisland","Kerry","","Castleisland,Kerry","Castleisland,Kerry,Ireland",-9.4601492,52.2328974
1229,"Castlejordan","Meath","","Castlejordan,Meath","Castlejordan,Meath,Ireland",-7.1185929,53.3973494
1645,"Castlejordan","Offaly","","Castlejordan,Offaly","Castlejordan,Offaly,Ireland",-7.1213632,53.3971158
344,"Castleknock","Dublin","","Castleknock,Dublin","Castleknock,Dublin,Ireland",-6.3584191,53.3736519
140,"Castlelyons","Cork","","Castlelyons,Cork","Castlelyons,Cork,Ireland",-8.2336991,52.0885669
1241,"Castlemagner","Cork","","Castlemagner,Cork","Castlemagner,Cork,Ireland",-8.8239314,52.1661129
639,"Castlemahon","Limerick","","Castlemahon,Limerick","Castlemahon,Limerick,Ireland",-9.0100733,52.4306979
514,"Castlemaine","Kerry","","Castlemaine,Kerry","Castlemaine,Kerry,Ireland",-9.7014756,52.1684322
2064,"Castlemaine","","","Castlemaine,","Castlemaine,,Ireland",-9.7014756,52.1684322
141,"Castlemartyr","Cork","","Castlemartyr,Cork","Castlemartyr,Cork,Ireland",-8.0535486,51.9119477
1627,"Castlemungret","Limerick","","Castlemungret,Limerick","Castlemungret,Limerick,Ireland",-8.6936401,52.6421795
1821,"Castleplunket","Roscommon","","Castleplunket,Roscommon","Castleplunket,Roscommon,Ireland",-8.3442002,53.7502258
903,"Castlepollard","Westmeath","","Castlepollard,Westmeath","Castlepollard,Westmeath,Ireland",-7.2964508,53.6800722
792,"Castlerea","Roscommon","","Castlerea,Roscommon","Castlerea,Roscommon,Ireland",-8.4924537,53.7686571
2091,"Castlerea","Galway","","Castlerea,Galway","Castlerea,Galway,Ireland",-8.4857119,53.761548
218,"Castlerock","","","Castlerock,","Castlerock,,Ireland",-6.7904168,55.164987
1725,"Castleshane","Monaghan","","Castleshane,Monaghan","Castleshane,Monaghan,Ireland",-6.8775676,54.2366271
2246,"Castletown","Laois","","Castletown,Laois","Castletown,Laois,Ireland",-7.4995604,52.9774693
2572,"Castletown Finea","Westmeath","","Castletown Finea,Westmeath","Castletown Finea,Westmeath,Ireland",-7.3312869,53.7545926
1137,"Castletown Geoghegan","Westmeath","","Castletown Geoghegan,Westmeath","Castletown Geoghegan,Westmeath,Ireland",-7.4876069,53.4462801
2041,"Castletown Kilberry","","","Castletown Kilberry,","Castletown Kilberry,,Ireland",-6.6793064,53.7008038
2376,"Castletown Kilpatrick","Meath","","Castletown Kilpatrick,Meath","Castletown Kilpatrick,Meath,Ireland",-6.71553,53.78091
142,"Castletownbere","Cork","","Castletownbere,Cork","Castletownbere,Cork,Ireland",-9.9103302,51.6514954
143,"Castletownroche","Cork","","Castletownroche,Cork","Castletownroche,Cork,Ireland",-8.4634479,52.1731113
144,"Castletownshend","Cork","","Castletownshend,Cork","Castletownshend,Cork,Ireland",-9.1793869,51.5265757
640,"Castletroy","Limerick","","Castletroy,Limerick","Castletroy,Limerick,Ireland",-8.5542622,52.673978
1646,"Castlewarren","Kilkenny","","Castlewarren,Kilkenny","Castlewarren,Kilkenny,Ireland",-7.06,52.42
300,"Castlewellan","Down","","Castlewellan,Down","Castlewellan,Down,Ireland",-5.9418219,54.2579967
515,"Causeway","Kerry","","Causeway,Kerry","Causeway,Kerry,Ireland",-9.7330771,52.414422
56,"Cavan Town","Cavan","","Cavan Town,Cavan","Cavan Town,Cavan,Ireland",-7.3633319,53.9897186
2500,"Cecilstown","Cork","","Cecilstown,Cork","Cecilstown,Cork,Ireland",-8.77565,52.1689565
542,"Celbridge","Kildare","","Celbridge,Kildare","Celbridge,Kildare,Ireland",-6.5384589,53.339897
345,"Chapelizod","Dublin","","Chapelizod,Dublin","Chapelizod,Dublin,Ireland",-6.3462465,53.34784
710,"Charlestown","Mayo","","Charlestown,Mayo","Charlestown,Mayo,Ireland",-8.7926035,53.9640248
145,"Charleville","Cork","","Charleville,Cork","Charleville,Cork,Ireland",-8.6831774,52.3549076
641,"Charleville","Limerick","","Charleville,Limerick","Charleville,Limerick,Ireland",-8.6831774,52.3549076
880,"Cheekpoint","Waterford","","Cheekpoint,Waterford","Cheekpoint,Waterford,Ireland",-7.0036114,52.2685767
2506,"Cherry Orchard","Dublin","","Cherry Orchard,Dublin","Cherry Orchard,Dublin,Ireland",-6.3683967,53.33705
1337,"Cherrymount","Waterford","","Cherrymount,Waterford","Cherrymount,Waterford,Ireland",-7.9140148,51.9954813
2068,"Chetwynd","Cork","","Chetwynd,Cork","Chetwynd,Cork,Ireland",-8.5220471,51.8625869
1595,"Churchfield","Cork","","Churchfield,Cork","Churchfield,Cork,Ireland",-8.4942357,51.9104312
1532,"Churchill","Donegal","","Churchill,Donegal","Churchill,Donegal,Ireland",-7.8915401,54.9893171
346,"Churchtown","Dublin","","Churchtown,Dublin","Churchtown,Dublin,Ireland",-6.2472352,53.2936028
2115,"Churchtown","Cork","","Churchtown,Cork","Churchtown,Cork,Ireland",-8.7308692,52.2713057
2383,"Churchtown South","Cork","","Churchtown South,Cork","Churchtown South,Cork,Ireland",-8.0795001,51.82688
982,"City Centre","Dublin","","City Centre,Dublin","City Centre,Dublin,Ireland",-6.2656231,53.3482143
2658,"Citywest","Dublin","","Citywest,Dublin","Citywest,Dublin,Ireland",-6.4148524,53.2770976
1745,"Claddaghduff","Galway","","Claddaghduff,Galway","Claddaghduff,Galway,Ireland",-10.1381689,53.5435013
2225,"Clady","Tyrone","","Clady,Tyrone","Clady,Tyrone,Ireland",-7.54122,54.79315
2554,"Clady","Armagh","","Clady,Armagh","Clady,Armagh,Ireland",-6.5666488,54.2525511
543,"Clane","Kildare","","Clane,Kildare","Clane,Kildare,Ireland",-6.6870404,53.293785
772,"Clara","Offaly","","Clara,Offaly","Clara,Offaly,Ireland",-7.6134801,53.3425103
2172,"Clara","","","Clara,","Clara,,Ireland",-7.6134801,53.3425103
1412,"Clare Island","Mayo","","Clare Island,Mayo","Clare Island,Mayo,Ireland",-9.9951076,53.8044772
77,"Clare Town","","","Clare Town,","Clare Town,,Ireland",-8.9811351,52.904532
78,"Clarecastle","Clare","","Clarecastle,Clare","Clarecastle,Clare,Ireland",-8.9642515,52.8147376
454,"Claregalway","Galway","","Claregalway,Galway","Claregalway,Galway,Ireland",-8.9456734,53.3409031
2356,"Clarehall","Dublin","","Clarehall,Dublin","Clarehall,Dublin,Ireland",-6.172969,53.4000012
455,"Claremorris","","","Claremorris,","Claremorris,,Ireland",-9.0017356,53.7238764
711,"Claremorris","Mayo","","Claremorris,Mayo","Claremorris,Mayo,Ireland",-9.0017356,53.7238764
1433,"Clareview","Limerick","","Clareview,Limerick","Clareview,Limerick,Ireland",-8.6530947,52.6724699
642,"Clarina","Limerick","","Clarina,Limerick","Clarina,Limerick,Ireland",-8.73269,52.63209
456,"Clarinbridge","Galway","","Clarinbridge,Galway","Clarinbridge,Galway,Ireland",-8.8773824,53.2293077
1116,"Clashmore","Waterford","","Clashmore,Waterford","Clashmore,Waterford,Ireland",-7.8188756,52.0093569
2030,"Claudy","Derry","","Claudy,Derry","Claudy,Derry,Ireland",-7.1535639,54.9118564
2036,"Cleariestown","Wexford","","Cleariestown,Wexford","Cleariestown,Wexford,Ireland",-6.59291,52.27662
457,"Cleggan","Galway","","Cleggan,Galway","Cleggan,Galway,Ireland",-10.1121917,53.556598
79,"Clifden","","","Clifden,","Clifden,,Ireland",-10.0202388,53.4891345
458,"Clifden","Galway","","Clifden,Galway","Clifden,Galway,Ireland",-10.0202388,53.4891345
2285,"Clifden","Kilkenny","","Clifden,Kilkenny","Clifden,Kilkenny,Ireland",-7.1553039,52.6393247
808,"Cliffoney","Sligo","","Cliffoney,Sligo","Cliffoney,Sligo,Ireland",-8.4534324,54.430559
246,"Cloghan","Donegal","","Cloghan,Donegal","Cloghan,Donegal,Ireland",-7.9338391,54.8410263
773,"Cloghan","Offaly","","Cloghan,Offaly","Cloghan,Offaly,Ireland",-7.8825143,53.2252399
1942,"Cloghane","Kerry","","Cloghane,Kerry","Cloghane,Kerry,Ireland",-10.1824514,52.2304787
838,"Clogheen","Tipperary","","Clogheen,Tipperary","Clogheen,Tipperary,Ireland",-7.9951028,52.2770794
1003,"Clogheen","Cork","","Clogheen,Cork","Clogheen,Cork,Ireland",-8.456243,51.9217254
864,"Clogher","Tyrone","","Clogher,Tyrone","Clogher,Tyrone,Ireland",-7.1645201,54.4143001
685,"Clogherhead","Louth","","Clogherhead,Louth","Clogherhead,Louth,Ireland",-6.2388506,53.7916777
2634,"Clogherinkoe","Kildare","","Clogherinkoe,Kildare","Clogherinkoe,Kildare,Ireland",NA,NA
347,"Cloghran","Dublin","","Cloghran,Dublin","Cloghran,Dublin,Ireland",-6.3572158,53.4119247
1832,"Cloghroe","Cork","","Cloghroe,Cork","Cloghroe,Cork,Ireland",-8.6486435,51.9283919
1643,"Clonahard","","","Clonahard,","Clonahard,,Ireland",-7.0231073,53.4515329
146,"Clonakilty","Cork","","Clonakilty,Cork","Clonakilty,Cork,Ireland",-8.9055104,51.6203379
2434,"Clonalvy","Meath","","Clonalvy,Meath","Clonalvy,Meath,Ireland",-6.3426811,53.5878375
1682,"Clonard","Meath","","Clonard,Meath","Clonard,Meath,Ireland",-7.0231073,53.4515329
2393,"Clonard","Wexford","","Clonard,Wexford","Clonard,Wexford,Ireland",-6.4633381,52.336916
1181,"Clonaslee","Laois","","Clonaslee,Laois","Clonaslee,Laois,Ireland",-7.5243696,53.1486014
1571,"Clonbanin","Cork","","Clonbanin,Cork","Clonbanin,Cork,Ireland",-8.4756035,51.8985143
2090,"Clonberne","Galway","","Clonberne,Galway","Clonberne,Galway,Ireland",-8.6478878,53.5607766
1077,"Clonbullogue","Offaly","","Clonbullogue,Offaly","Clonbullogue,Offaly,Ireland",-7.086431,53.2606831
459,"Clonbur","Galway","","Clonbur,Galway","Clonbur,Galway,Ireland",-9.3643582,53.5451643
1581,"Clonbur","Mayo","","Clonbur,Mayo","Clonbur,Mayo,Ireland",-9.3643582,53.5451643
348,"Clondalkin","Dublin","","Clondalkin,Dublin","Clondalkin,Dublin,Ireland",-6.3946263,53.3204476
671,"Clondra","Longford","","Clondra,Longford","Clondra,Longford,Ireland",-7.9043919,53.7311034
1513,"Clondrohid","Cork","","Clondrohid,Cork","Clondrohid,Cork,Ireland",-9.0227675,51.9292332
2532,"Clonea","Waterford","","Clonea,Waterford","Clonea,Waterford,Ireland",-7.5466563,52.0939543
2404,"Clonea Power","Waterford","","Clonea Power,Waterford","Clonea Power,Waterford,Ireland",-7.44779,52.28147
349,"Clonee","Dublin","","Clonee,Dublin","Clonee,Dublin,Ireland",-6.4426,53.4105621
735,"Clonee","Meath","","Clonee,Meath","Clonee,Meath,Ireland",-6.4426,53.4105621
2358,"Cloneen","Tipperary","","Cloneen,Tipperary","Cloneen,Tipperary,Ireland",-7.6018793,52.4755215
1620,"Clonegal","Carlow","","Clonegal,Carlow","Clonegal,Carlow,Ireland",-6.6477303,52.6948009
1777,"Clonegal","Wexford","","Clonegal,Wexford","Clonegal,Wexford,Ireland",-6.6372965,52.691922
758,"Clones","Monaghan","","Clones,Monaghan","Clones,Monaghan,Ireland",-7.2306671,54.1796829
1258,"Cloneygowan","Offaly","","Cloneygowan,Offaly","Cloneygowan,Offaly,Ireland",-7.2804446,53.1874518
2279,"Clonfanlough","Offaly","","Clonfanlough,Offaly","Clonfanlough,Offaly,Ireland",-7.9237797,53.3166251
2538,"Clongriffin","Dublin","","Clongriffin,Dublin","Clongriffin,Dublin,Ireland",-6.1534481,53.4013014
2577,"Clonkeen","Kerry","","Clonkeen,Kerry","Clonkeen,Kerry,Ireland",-9.31511,51.98111
80,"Clonlara","Clare","","Clonlara,Clare","Clonlara,Clare,Ireland",-8.5546236,52.7247118
2039,"Clonmacnois","","","Clonmacnois,","Clonmacnois,,Ireland",-7.9862945,53.3262773
2633,"Clonmacnoise","Offaly","","Clonmacnoise,Offaly","Clonmacnoise,Offaly,Ireland",-7.9862945,53.3262773
247,"Clonmany","Donegal","","Clonmany,Donegal","Clonmany,Donegal,Ireland",-7.4116109,55.2628052
839,"Clonmel","Tipperary","","Clonmel,Tipperary","Clonmel,Tipperary,Ireland",-7.6902551,52.3558172
1871,"Clonmel","Waterford","","Clonmel,Waterford","Clonmel,Waterford,Ireland",-7.6902551,52.3558172
904,"Clonmellon","Westmeath","","Clonmellon,Westmeath","Clonmellon,Westmeath,Ireland",-7.0183933,53.6640717
2520,"Clonmellon","Meath","","Clonmellon,Meath","Clonmellon,Meath,Ireland",-7.0183933,53.6640717
2599,"Clonmore","Armagh","","Clonmore,Armagh","Clonmore,Armagh,Ireland",-6.6400224,54.4838005
840,"Clonoulty","Tipperary","","Clonoulty,Tipperary","Clonoulty,Tipperary,Ireland",-7.9585478,52.6042748
927,"Clonroche","Wexford","","Clonroche,Wexford","Clonroche,Wexford,Ireland",-6.7174157,52.4496872
1057,"Clonrollagh","Longford","","Clonrollagh,Longford","Clonrollagh,Longford,Ireland",-7.797433,53.7539881
350,"Clonshaugh","Dublin","","Clonshaugh,Dublin","Clonshaugh,Dublin,Ireland",-6.2109066,53.412688
351,"Clonsilla","Dublin","","Clonsilla,Dublin","Clonsilla,Dublin,Ireland",-6.4244504,53.3868977
352,"Clonskeagh","Dublin","","Clonskeagh,Dublin","Clonskeagh,Dublin,Ireland",-6.2418651,53.3084815
353,"Clontarf","Dublin","","Clontarf,Dublin","Clontarf,Dublin,Ireland",-6.2045103,53.3660165
1607,"Clonterm","Longford","","Clonterm,Longford","Clonterm,Longford,Ireland",-7.8283724,53.7127301
760,"Clontibret","Monaghan","","Clontibret,Monaghan","Clontibret,Monaghan,Ireland",-6.8415402,54.2054431
606,"Cloone","Leitrim","","Cloone,Leitrim","Cloone,Leitrim,Ireland",-7.7853396,53.9458795
2148,"Clooney","Clare","","Clooney,Clare","Clooney,Clare,Ireland",-9.2306201,52.93818
1511,"Cloonfad","Roscommon","","Cloonfad,Roscommon","Cloonfad,Roscommon,Ireland",-8.7518199,53.6867556
1814,"Clough","Down","","Clough,Down","Clough,Down,Ireland",-5.83734,54.2912
2488,"Clough Village","Laois","","Clough Village,Laois","Clough Village,Laois,Ireland",-7.5098312,52.8868194
2664,"Cloughbrack","Galway","","Cloughbrack,Galway","Cloughbrack,Galway,Ireland",-9.43502,53.56069
1969,"Cloughduv","Cork","","Cloughduv,Cork","Cloughduv,Cork,Ireland",-8.7880041,51.8473203
841,"Cloughjordan","Tipperary","","Cloughjordan,Tipperary","Cloughjordan,Tipperary,Ireland",-8.0383372,52.9429442
2263,"Cloughmills","Antrim","","Cloughmills,Antrim","Cloughmills,Antrim,Ireland",-6.3325399,54.99904
1789,"Cloverhill","Roscommon","","Cloverhill,Roscommon","Cloverhill,Roscommon,Ireland",-8.3838983,53.7511459
147,"Cloyne","Cork","","Cloyne,Cork","Cloyne,Cork,Ireland",-8.121237,51.8630971
2467,"Clune","Tipperary","","Clune,Tipperary","Clune,Tipperary,Ireland",-7.64851,52.54809
2558,"Coa","Fermanagh","","Coa,Fermanagh","Coa,Fermanagh,Ireland",-7.5640344,54.4061086
1005,"Coachford","Cork","","Coachford,Cork","Coachford,Cork,Ireland",-8.7889601,51.909471
2215,"Coalisland","Tyrone","","Coalisland,Tyrone","Coalisland,Tyrone,Ireland",-6.7022475,54.5403238
148,"Cobh","Cork","","Cobh,Cork","Cobh,Cork,Ireland",-8.2942858,51.8503357
2385,"Coill Dubh","Kildare","","Coill Dubh,Kildare","Coill Dubh,Kildare,Ireland",-6.8185844,53.2931573
1783,"Colbinstown","Kildare","","Colbinstown,Kildare","Colbinstown,Kildare,Ireland",-6.7597728,53.0321408
1726,"Colehill","Longford","","Colehill,Longford","Colehill,Longford,Ireland",-7.6744478,53.5944119
220,"Coleraine","Derry","","Coleraine,Derry","Coleraine,Derry,Ireland",-6.6646103,55.1325802
905,"Collinstown","Westmeath","","Collinstown,Westmeath","Collinstown,Westmeath,Ireland",-7.21216,53.6474715
686,"Collon","Louth","","Collon,Louth","Collon,Louth,Ireland",-6.4840991,53.7777425
1438,"Collon","Meath","","Collon,Meath","Collon,Meath,Ireland",-6.4708175,53.7642457
809,"Collooney","Sligo","","Collooney,Sligo","Collooney,Sligo,Ireland",-8.4988292,54.1803292
301,"Comber","Down","","Comber,Down","Comber,Down,Ireland",-5.7456751,54.5504547
1652,"Conahy","Kilkenny","","Conahy,Kilkenny","Conahy,Kilkenny,Ireland",-7.30596,52.76334
712,"Cong","Mayo","","Cong,Mayo","Cong,Mayo,Ireland",-9.2834604,53.5416844
1698,"Cong","Galway","","Cong,Galway","Cong,Galway,Ireland",-9.2834604,53.5416844
1242,"Conna","Cork","","Conna,Cork","Conna,Cork,Ireland",-8.1073545,52.0931079
460,"Connemara","Galway","","Connemara,Galway","Connemara,Galway,Ireland",-9.2010673,53.2486408
1709,"Connolly","Clare","","Connolly,Clare","Connolly,Clare,Ireland",-9.1834499,52.8306378
248,"Convoy","Donegal","","Convoy,Donegal","Convoy,Donegal,Ireland",-7.6654467,54.859725
865,"Cookstown","Tyrone","","Cookstown,Tyrone","Cookstown,Tyrone,Ireland",-6.7443895,54.6418158
1432,"Coolagh","Kilkenny","","Coolagh,Kilkenny","Coolagh,Kilkenny,Ireland",-7.3825052,52.4969212
810,"Coolaney","Sligo","","Coolaney,Sligo","Coolaney,Sligo,Ireland",-8.6008023,54.1738093
1163,"Coolarty","Longford","","Coolarty,Longford","Coolarty,Longford,Ireland",-7.55918,53.75334
1919,"Coolattin","","","Coolattin,","Coolattin,,Ireland",-6.519587,52.7469382
1609,"Coolcarrigan","","","Coolcarrigan,","Coolcarrigan,,Ireland",-6.8692983,53.3200576
1404,"Coolcotts","Wexford","","Coolcotts,Wexford","Coolcotts,Wexford,Ireland",-6.5019436,52.3363695
1073,"Coolderry","Offaly","","Coolderry,Offaly","Coolderry,Offaly,Ireland",-7.86019,53.0141949
2000,"Coole","Westmeath","","Coole,Westmeath","Coole,Westmeath,Ireland",-7.3666546,53.6992601
1307,"Coolea","Cork","","Coolea,Cork","Coolea,Cork,Ireland",-9.2177972,51.9282765
1765,"Cooleeny","","","Cooleeny,","Cooleeny,,Ireland",-7.7438652,53.7130332
2608,"Cooley","Louth","","Cooley,Louth","Cooley,Louth,Ireland",-6.2186266,54.0341895
2289,"Coolgreany","Wexford","","Coolgreany,Wexford","Coolgreany,Wexford,Ireland",-6.2360077,52.7647077
2004,"Coolkenno","Carlow","","Coolkenno,Carlow","Coolkenno,Carlow,Ireland",-6.66556,52.74355
1574,"Coolmeen","Clare","","Coolmeen,Clare","Coolmeen,Clare,Ireland",-9.2140599,52.6526667
2286,"Coolmine","Dublin","","Coolmine,Dublin","Coolmine,Dublin,Ireland",-6.3980238,53.3913714
354,"Coolock","Dublin","","Coolock,Dublin","Coolock,Dublin,Ireland",-6.199216,53.3882315
594,"Coolrain","Laois","","Coolrain,Laois","Coolrain,Laois,Ireland",-7.5658368,52.9774066
761,"Coolshannagh","Monaghan","","Coolshannagh,Monaghan","Coolshannagh,Monaghan,Ireland",-6.965061,54.2588375
2338,"Coon","Kilkenny","","Coon,Kilkenny","Coon,Kilkenny,Ireland",-7.1192731,52.7863018
2194,"Coonagh","Limerick","","Coonagh,Limerick","Coonagh,Limerick,Ireland",-8.6919033,52.6671454
2048,"Cooraclare","Clare","","Cooraclare,Clare","Cooraclare,Clare,Ireland",-9.4184066,52.7027182
607,"Cootehall","","","Cootehall,","Cootehall,,Ireland",-8.1580068,53.9841688
2156,"Cootehall","Roscommon","","Cootehall,Roscommon","Cootehall,Roscommon,Ireland",-8.1580068,53.9841688
57,"Cootehill","Cavan","","Cootehill,Cavan","Cootehill,Cavan,Ireland",-7.0823541,54.0725034
643,"Corbally","Limerick","","Corbally,Limerick","Corbally,Limerick,Ireland",-8.6119953,52.6803337
2042,"Corcaghan","Monaghan","","Corcaghan,Monaghan","Corcaghan,Monaghan,Ireland",-7.0010836,54.1905928
2627,"Corcullen","Galway","","Corcullen,Galway","Corcullen,Galway,Ireland",-9.154109,53.3037027
2242,"Corduff","Dublin","","Corduff,Dublin","Corduff,Dublin,Ireland",-6.378893,53.397556
149,"Cork City","Cork","","Cork City,Cork","Cork City,Cork,Ireland",-8.4756035,51.8985143
1256,"Corkbeg","","","Corkbeg,","Corkbeg,,Ireland",-8.2485123,51.8207471
2034,"Corlismore","Cavan","","Corlismore,Cavan","Corlismore,Cavan,Ireland",-7.4672943,53.9276126
2084,"Corlough","Cavan","","Corlough,Cavan","Corlough,Cavan,Ireland",-7.7681185,54.126021
2103,"Cornacassa","","","Cornacassa,","Cornacassa,,Ireland",-6.9897947,54.2460564
2402,"Cornagun","","","Cornagun,","Cornagun,,Ireland",-7.6920536,53.1423672
461,"Cornamona","Galway","","Cornamona,Galway","Cornamona,Galway,Ireland",-9.4488086,53.5145818
81,"Corofin","Clare","","Corofin,Clare","Corofin,Clare,Ireland",-9.0640874,52.9448216
462,"Corrandulla","Galway","","Corrandulla,Galway","Corrandulla,Galway,Ireland",-8.9957945,53.3991608
2533,"Corravilla","","","Corravilla,","Corravilla,,Ireland",-6.9738009,53.9750719
1363,"Costelloe","Galway","","Costelloe,Galway","Costelloe,Galway,Ireland",-9.5499547,53.2879391
150,"Courtmacsherry","Cork","","Courtmacsherry,Cork","Courtmacsherry,Cork,Ireland",-8.7059339,51.6338554
928,"Courtown","Wexford","","Courtown,Wexford","Courtown,Wexford,Ireland",-6.2286169,52.6448624
1943,"Courtown Harbour","Wexford","","Courtown Harbour,Wexford","Courtown Harbour,Wexford,Ireland",-6.2286169,52.6448624
1868,"Courtwood","","","Courtwood,","Courtwood,,Ireland",-7.0752485,53.0800944
2622,"Craanford","Wexford","","Craanford,Wexford","Craanford,Wexford,Ireland",-6.38717,52.68234
27,"Craigavon","Armagh","","Craigavon,Armagh","Craigavon,Armagh,Ireland",-6.4175653,54.4429264
2327,"Cranford","Donegal","","Cranford,Donegal","Cranford,Donegal,Ireland",-7.7141311,55.1462129
2181,"Cranmore","Sligo","","Cranmore,Sligo","Cranmore,Sligo,Ireland",-8.49437,54.24316
1413,"Cranny","Clare","","Cranny,Clare","Cranny,Clare,Ireland",-9.2254726,52.6924765
82,"Cratloe","Clare","","Cratloe,Clare","Cratloe,Clare,Ireland",-8.7665593,52.6996826
463,"Craughwell","Galway","","Craughwell,Galway","Craughwell,Galway,Ireland",-8.7347736,53.2302689
302,"Crawfordsburn","","","Crawfordsburn,","Crawfordsburn,,Ireland",-5.7314501,54.65972
1829,"Crecora","Limerick","","Crecora,Limerick","Crecora,Limerick,Ireland",-8.6690881,52.5763074
1243,"Cree","Clare","","Cree,Clare","Cree,Clare,Ireland",-9.4300702,52.7463342
1728,"Creenagh","","","Creenagh,","Creenagh,,Ireland",-7.841485,53.9151334
249,"Creeslough","Donegal","","Creeslough,Donegal","Creeslough,Donegal,Ireland",-7.9094676,55.1233497
2568,"Creevy","Longford","","Creevy,Longford","Creevy,Longford,Ireland",-7.4429943,53.7948927
2546,"Creggan","Derry","","Creggan,Derry","Creggan,Derry,Ireland",-7.3480413,54.9959672
464,"Creggs","Galway","","Creggs,Galway","Creggs,Galway,Ireland",-8.3608217,53.5951306
2335,"Creggs","Roscommon","","Creggs,Roscommon","Creggs,Roscommon,Ireland",-8.3608217,53.5951306
2236,"Creighan","Cavan","","Creighan,Cavan","Creighan,Cavan,Ireland",-7.3582223,53.9801758
1061,"Crettyard","Carlow","","Crettyard,Carlow","Crettyard,Carlow,Ireland",-7.1276304,52.8418541
1072,"Crettyard","Laois","","Crettyard,Laois","Crettyard,Laois,Ireland",-7.1276304,52.8418541
1976,"Crettyard","Kilkenny","","Crettyard,Kilkenny","Crettyard,Kilkenny,Ireland",-7.1276304,52.8418541
1842,"Croagh","Limerick","","Croagh,Limerick","Croagh,Limerick,Ireland",-8.8713139,52.5348198
250,"Crolly","Donegal","","Crolly,Donegal","Crolly,Donegal,Ireland",-8.260615,55.0272452
2645,"Cromane","","","Cromane,","Cromane,,Ireland",-9.8985347,52.1061221
2318,"Crooke","Waterford","","Crooke,Waterford","Crooke,Waterford,Ireland",-6.9796504,52.2294852
1608,"Crookhaven","Cork","","Crookhaven,Cork","Crookhaven,Cork,Ireland",-9.7260407,51.4684006
151,"Crookstown","Cork","","Crookstown,Cork","Crookstown,Cork,Ireland",-8.8304319,51.842427
2650,"Crookstown","Kildare","","Crookstown,Kildare","Crookstown,Kildare,Ireland",-6.80925,53.02115
644,"Croom","Limerick","","Croom,Limerick","Croom,Limerick,Ireland",-8.7181859,52.5189564
1579,"Cross","Mayo","","Cross,Mayo","Cross,Mayo,Ireland",-9.2175128,53.5410704
2439,"Cross","Clare","","Cross,Clare","Cross,Clare,Ireland",-9.7747423,52.5986204
1067,"Crossabeg","Wexford","","Crossabeg,Wexford","Crossabeg,Wexford,Ireland",-6.5006134,52.3847761
1152,"Crossbarry","Cork","","Crossbarry,Cork","Crossbarry,Cork,Ireland",-8.6453657,51.8020473
1481,"Crossdoney","Cavan","","Crossdoney,Cavan","Crossdoney,Cavan,Ireland",-7.4336255,53.9542763
1014,"Crosserlough","Cavan","","Crosserlough,Cavan","Crosserlough,Cavan,Ireland",-7.2884148,53.8647112
1480,"Crossgar","Down","","Crossgar,Down","Crossgar,Down,Ireland",-5.7627853,54.3974044
152,"Crosshaven","Cork","","Crosshaven,Cork","Crosshaven,Cork,Ireland",-8.2931538,51.8011059
58,"Crosskeys","Cavan","","Crosskeys,Cavan","Crosskeys,Cavan,Ireland",-7.2648297,53.9189605
1808,"Crossmaglen","Armagh","","Crossmaglen,Armagh","Crossmaglen,Armagh,Ireland",-6.6087567,54.0774066
713,"Crossmolina","Mayo","","Crossmolina,Mayo","Crossmolina,Mayo,Ireland",-9.3158456,54.100342
2639,"Crossneen","Carlow","","Crossneen,Carlow","Crossneen,Carlow,Ireland",-6.9544861,52.825761
2604,"Crosspatrick","Kilkenny","","Crosspatrick,Kilkenny","Crosspatrick,Kilkenny,Ireland",-7.6007314,52.7721952
2504,"Crossroads","Donegal","","Crossroads,Donegal","Crossroads,Donegal,Ireland",-8.112297,55.136539
1490,"Crubany","Cavan","","Crubany,Cavan","Crubany,Cavan,Ireland",-7.3229896,53.9637748
12,"Crumlin","Antrim","","Crumlin,Antrim","Crumlin,Antrim,Ireland",-6.2141019,54.6231751
355,"Crumlin","Dublin","","Crumlin,Dublin","Crumlin,Dublin,Ireland",-6.3089222,53.3252584
1931,"Crumlin Village","Dublin","","Crumlin Village,Dublin","Crumlin Village,Dublin,Ireland",-6.3089222,53.3252584
1565,"Crusheen","Clare","","Crusheen,Clare","Crusheen,Clare,Ireland",-8.8967688,52.9386532
1415,"Cuffesgrange","Kilkenny","","Cuffesgrange,Kilkenny","Cuffesgrange,Kilkenny,Ireland",-7.3097,52.59173
2220,"Culdaff","Donegal","","Culdaff,Donegal","Culdaff,Donegal,Ireland",-7.1651352,55.2859437
1033,"Culleens","Sligo","","Culleens,Sligo","Culleens,Sligo,Ireland",-8.9916907,54.2118163
1548,"Cullen","Cork","","Cullen,Cork","Cullen,Cork,Ireland",-9.1211066,52.1118613
2040,"Cullen","Tipperary","","Cullen,Tipperary","Cullen,Tipperary,Ireland",-8.2751209,52.5107765
1761,"Cullohill","Laois","","Cullohill,Laois","Cullohill,Laois,Ireland",-7.4746894,52.8186911
2008,"Culloville","Monaghan","","Culloville,Monaghan","Culloville,Monaghan,Ireland",-6.6606284,54.0343317
2271,"Culloville","Armagh","","Culloville,Armagh","Culloville,Armagh,Ireland",-6.6425801,54.06142
1786,"Cullyhanna","Armagh","","Cullyhanna,Armagh","Cullyhanna,Armagh,Ireland",-6.5872599,54.13077
2142,"Culmore","Derry","","Culmore,Derry","Culmore,Derry,Ireland",-7.27389,55.04942
2431,"Culmullen","Meath","","Culmullen,Meath","Culmullen,Meath,Ireland",-6.6305132,53.4951108
2470,"Cummer","Galway","","Cummer,Galway","Cummer,Galway,Ireland",-8.9178892,53.4525771
1934,"Currabinny","","","Currabinny,","Currabinny,,Ireland",-8.3278419,51.8129676
929,"Curracloe","Wexford","","Curracloe,Wexford","Curracloe,Wexford,Ireland",-6.3921174,52.3931816
544,"Curragh","Kildare","","Curragh,Kildare","Curragh,Kildare,Ireland",-6.8285954,53.1420265
2631,"Curragha","Meath","","Curragha,Meath","Curragha,Meath,Ireland",-6.4437,53.5373
2501,"Curraghboy","Roscommon","","Curraghboy,Roscommon","Curraghboy,Roscommon,Ireland",-8.1119678,53.4846873
1545,"Curraghroe","Roscommon","","Curraghroe,Roscommon","Curraghroe,Roscommon,Ireland",-8.0275241,53.7246341
2377,"Curraglass","Cork","","Curraglass,Cork","Curraglass,Cork,Ireland",-8.0465862,52.094073
1058,"Curraheen","Cork","","Curraheen,Cork","Curraheen,Cork,Ireland",-8.5307689,51.8772705
1837,"Currans","Kerry","","Currans,Kerry","Currans,Kerry,Ireland",-9.54727,52.19693
1773,"Currow","Kerry","","Currow,Kerry","Currow,Kerry,Ireland",-9.4963019,52.1849368
992,"Curry","Sligo","","Curry,Sligo","Curry,Sligo,Ireland",-8.7729846,54.0013835
2399,"Curry","","","Curry,","Curry,,Ireland",-8.7729846,54.0013835
774,"Daingean","Offaly","","Daingean,Offaly","Daingean,Offaly,Ireland",-7.291967,53.2960818
356,"Dalkey","Dublin","","Dalkey,Dublin","Dalkey,Dublin,Ireland",-6.1058436,53.2779106
1361,"Danesfort","Kilkenny","","Danesfort,Kilkenny","Danesfort,Kilkenny,Ireland",-7.2335513,52.5740472
2193,"Darkley","","","Darkley,","Darkley,,Ireland",-6.68006,54.22267
1022,"Darndale","Dublin","","Darndale,Dublin","Darndale,Dublin,Ireland",-6.1923102,53.3983085
2480,"Darragh","Clare","","Darragh,Clare","Darragh,Clare,Ireland",-9.061334,52.7944363
1009,"Dartry","Dublin","","Dartry,Dublin","Dartry,Dublin,Ireland",-6.2629795,53.3091949
1038,"Dean's Grange","Dublin","","Dean's Grange,Dublin","Dean's Grange,Dublin,Ireland",-6.1728596,53.2749537
1877,"Deanscurragh","Longford","","Deanscurragh,Longford","Deanscurragh,Longford,Ireland",-7.7957538,53.7283168
357,"Deansgrange","Dublin","","Deansgrange,Dublin","Deansgrange,Dublin,Ireland",-6.1728596,53.2749537
1054,"Deerpark","Cork","","Deerpark,Cork","Deerpark,Cork,Ireland",-8.4781685,51.8906666
2128,"Deerpark","Kilkenny","","Deerpark,Kilkenny","Deerpark,Kilkenny,Ireland",-7.2026928,52.8292451
960,"Delgany","","","Delgany,","Delgany,,Ireland",-6.0923308,53.1326111
1055,"Delgany","Wicklow","","Delgany,Wicklow","Delgany,Wicklow,Ireland",-6.0923308,53.1326111
906,"Delvin","Westmeath","","Delvin,Westmeath","Delvin,Westmeath,Ireland",-7.0917224,53.6125653
1485,"Derrane","Roscommon","","Derrane,Roscommon","Derrane,Roscommon,Ireland",-8.1769713,53.6668267
2373,"Derrinagree","Cork","","Derrinagree,Cork","Derrinagree,Cork,Ireland",-9.03326,52.12034
221,"Derry City","Derry","","Derry City,Derry","Derry City,Derry,Ireland",-7.3085748,54.9966124
251,"Derrybeg","Donegal","","Derrybeg,Donegal","Derrybeg,Donegal,Ireland",-8.2941873,55.0743448
430,"Derrygonnelly","Fermanagh","","Derrygonnelly,Fermanagh","Derrygonnelly,Fermanagh,Ireland",-7.8168441,54.4175949
2623,"Derrygoolin","Galway","","Derrygoolin,Galway","Derrygoolin,Galway,Ireland",-8.43971,52.98494
2292,"Derryharrow","Longford","","Derryharrow,Longford","Derryharrow,Longford,Ireland",-7.7760158,53.756196
431,"Derrylin","Fermanagh","","Derrylin,Fermanagh","Derrylin,Fermanagh,Ireland",-7.5714501,54.19624
1148,"Derrymore","","","Derrymore,","Derrymore,,Ireland",-9.83923,52.23923
2137,"Derrynane","Kerry","","Derrynane,Kerry","Derrynane,Kerry,Ireland",-10.120897,51.765396
1966,"Derrynoose","Armagh","","Derrynoose,Armagh","Derrynoose,Armagh,Ireland",-6.7947341,54.2373741
1004,"Dillons Cross","Cork","","Dillons Cross,Cork","Dillons Cross,Cork,Ireland",-8.4539154,51.9092308
2542,"Dillonstown","Louth","","Dillonstown,Louth","Dillonstown,Louth,Ireland",-6.3387936,53.8692378
516,"Dingle","Kerry","","Dingle,Kerry","Dingle,Kerry,Ireland",-10.2640135,52.1409389
358,"Dollymount","Dublin","","Dollymount,Dublin","Dollymount,Dublin,Ireland",-6.1742388,53.3659794
359,"Dolphins Barn","Dublin","","Dolphins Barn,Dublin","Dolphins Barn,Dublin,Ireland",-6.2914604,53.3335324
360,"Donabate","Dublin","","Donabate,Dublin","Donabate,Dublin,Ireland",-6.1504482,53.4853365
2129,"Donacarney","Meath","","Donacarney,Meath","Donacarney,Meath,Ireland",-6.2793,53.71051
1237,"Donadea","Kildare","","Donadea,Kildare","Donadea,Kildare,Ireland",-6.7344379,53.350377
2088,"Donagh","Fermanagh","","Donagh,Fermanagh","Donagh,Fermanagh,Ireland",-7.39132,54.21611
303,"Donaghadee","Down","","Donaghadee,Down","Donaghadee,Down,Ireland",-5.5375995,54.6425555
1675,"Donaghmede","Dublin","","Donaghmede,Dublin","Donaghmede,Dublin,Ireland",-6.161639,53.3986397
2079,"Donaghmore","Laois","","Donaghmore,Laois","Donaghmore,Laois,Ireland",-7.6021564,52.872509
1215,"Donamon","Roscommon","","Donamon,Roscommon","Donamon,Roscommon,Ireland",-8.328091,53.6505256
961,"Donard","","","Donard,","Donard,,Ireland",-6.6130978,53.0222351
1205,"Donard","Wicklow","","Donard,Wicklow","Donard,Wicklow,Ireland",-6.6130978,53.0222351
2127,"Donaskeagh","Tipperary","","Donaskeagh,Tipperary","Donaskeagh,Tipperary,Ireland",-8.0720785,52.5220639
2277,"Donaskeigh","Tipperary","","Donaskeigh,Tipperary","Donaskeigh,Tipperary,Ireland",-8.0720785,52.5220639
252,"Donegal Town","Donegal","","Donegal Town,Donegal","Donegal Town,Donegal,Ireland",-8.1096143,54.653827
153,"Doneraile","Cork","","Doneraile,Cork","Doneraile,Cork,Ireland",-8.5859774,52.2151735
362,"Donnybrook","Dublin","","Donnybrook,Dublin","Donnybrook,Dublin,Ireland",-6.2320169,53.3192586
363,"Donnycarney","Dublin","","Donnycarney,Dublin","Donnycarney,Dublin,Ireland",-6.2187686,53.3754142
1334,"Donohill","Tipperary","","Donohill,Tipperary","Donohill,Tipperary,Ireland",-8.1413569,52.5382847
1804,"Donore","Meath","","Donore,Meath","Donore,Meath,Ireland",-6.4172506,53.6921097
154,"Donoughmore","Cork","","Donoughmore,Cork","Donoughmore,Cork,Ireland",-8.7422122,51.9896271
1276,"Donoughmore","Limerick","","Donoughmore,Limerick","Donoughmore,Limerick,Ireland",-8.587631,52.6345207
2157,"Doochary","Donegal","","Doochary,Donegal","Doochary,Donegal,Ireland",-8.20812,54.90614
2217,"Doohamlet","Monaghan","","Doohamlet,Monaghan","Doohamlet,Monaghan,Ireland",-6.8239946,54.1287354
2059,"Doohoma","Mayo","","Doohoma,Mayo","Doohoma,Mayo,Ireland",-9.5357,54.0645
83,"Doolin","Clare","","Doolin,Clare","Doolin,Clare,Ireland",-9.3774199,53.0160289
645,"Doon","Limerick","","Doon,Limerick","Doon,Limerick,Ireland",-8.2478393,52.6043292
2440,"Doonaha","Clare","","Doonaha,Clare","Doonaha,Clare,Ireland",-9.6464376,52.6234264
84,"Doonbeg","Clare","","Doonbeg,Clare","Doonbeg,Clare,Ireland",-9.5259951,52.7308501
2409,"Doora","Clare","","Doora,Clare","Doora,Clare,Ireland",-8.924157,52.8351896
646,"Dooradoyle","Limerick","","Dooradoyle,Limerick","Dooradoyle,Limerick,Ireland",-8.6530797,52.6385907
2405,"Dorra","","","Dorra,","Dorra,,Ireland",-8.1886721,52.7979422
2585,"Doughcloyne","Cork","","Doughcloyne,Cork","Doughcloyne,Cork,Ireland",-8.5089141,51.8655203
156,"Douglas","Cork","","Douglas,Cork","Douglas,Cork,Ireland",-8.4242007,51.8711662
304,"Down","Down","","Down,Down","Down,Down,Ireland",-5.7157667,54.3276987
253,"Downings","Donegal","","Downings,Donegal","Downings,Donegal,Ireland",-7.8369654,55.1948628
13,"Downpatrick","","","Downpatrick,","Downpatrick,,Ireland",-5.7156922,54.3287514
28,"Downpatrick","","","Downpatrick,","Downpatrick,,Ireland",-5.7156922,54.3287514
305,"Downpatrick","Down","","Downpatrick,Down","Downpatrick,Down,Ireland",-5.7156922,54.3287514
59,"Dowra","Cavan","","Dowra,Cavan","Dowra,Cavan,Ireland",-8.0162777,54.1900827
2100,"Dowra","Leitrim","","Dowra,Leitrim","Dowra,Leitrim,Ireland",-8.0162777,54.1900827
2326,"Dowth","Meath","","Dowth,Meath","Dowth,Meath,Ireland",-6.4632008,53.7024215
1960,"Drakelands","Kilkenny","","Drakelands,Kilkenny","Drakelands,Kilkenny,Ireland",-7.27797,52.64851
991,"Drakelands Lower","Kilkenny","","Drakelands Lower,Kilkenny","Drakelands Lower,Kilkenny,Ireland",-7.2810206,52.6478559
2300,"Drakelands Middle","","","Drakelands Middle,","Drakelands Middle,,Ireland",-7.2919711,52.6431322
1801,"Drangan","Tipperary","","Drangan,Tipperary","Drangan,Tipperary,Ireland",-7.5840934,52.5169053
2071,"Drangan Village","Tipperary","","Drangan Village,Tipperary","Drangan Village,Tipperary,Ireland",-7.5840934,52.5169053
2171,"Drimarone","","","Drimarone,","Drimarone,,Ireland",-8.189705,54.692654
364,"Drimnagh","Dublin","","Drimnagh,Dublin","Drimnagh,Dublin,Ireland",-6.310314,53.3293084
157,"Drimoleague","Cork","","Drimoleague,Cork","Drimoleague,Cork,Ireland",-9.2612453,51.6599357
158,"Drinagh","Cork","","Drinagh,Cork","Drinagh,Cork,Ireland",-9.1471506,51.6513982
930,"Drinagh","Wexford","","Drinagh,Wexford","Drinagh,Wexford,Ireland",-6.45759,52.30758
1285,"Dring","Longford","","Dring,Longford","Dring,Longford,Ireland",-7.5430196,53.8182626
159,"Dripsey","Cork","","Dripsey,Cork","Dripsey,Cork,Ireland",-8.7420906,51.9143772
687,"Drogheda","Louth","","Drogheda,Louth","Drogheda,Louth,Ireland",-6.3560985,53.717856
1861,"Drogheda","Meath","","Drogheda,Meath","Drogheda,Meath,Ireland",-6.3560985,53.717856
2456,"Dromagh","Cork","","Dromagh,Cork","Dromagh,Cork,Ireland",-8.9722565,52.1251711
608,"Dromahair","Leitrim","","Dromahair,Leitrim","Dromahair,Leitrim,Ireland",-8.3026235,54.2306704
1570,"Dromahane","Cork","","Dromahane,Cork","Dromahane,Cork,Ireland",-8.6908349,52.1056038
2410,"Dromara","Down","","Dromara,Down","Dromara,Down,Ireland",-6.0178715,54.3798437
1864,"Dromard","Sligo","","Dromard,Sligo","Dromard,Sligo,Ireland",-8.6733389,54.2371932
2615,"Drombane","Tipperary","","Drombane,Tipperary","Drombane,Tipperary,Ireland",-8.0240764,52.6847948
1247,"Drombanna","Limerick","","Drombanna,Limerick","Drombanna,Limerick,Ireland",-8.57865,52.62101
1060,"Dromcollogher","Limerick","","Dromcollogher,Limerick","Dromcollogher,Limerick,Ireland",-8.90795,52.3396633
1637,"Dromina","Cork","","Dromina,Cork","Dromina,Cork,Ireland",-8.8021272,52.3140077
2363,"Dromineer","Tipperary","","Dromineer,Tipperary","Dromineer,Tipperary,Ireland",-8.2756534,52.9248849
